Name,Infomail,Latitude,Longitude,Bilanzsumme
Zevener Volksbank eG,info@zvb.de,53.29929,9.28038,"694,768"
Winterbacher Bank eG,info@winterbacher-bank.de,49.87465,7.63822,"222,991"
Wiesbadener Volksbank eG,info@wvb.de,50.08204,8.24166,"7,459,303"
Westerwald Bank eG Volks- und Raiffeisenbank,info@westerwaldbank.de,50.43622,7.83025,"3,727,973"
Weser-Elbe Sparkasse,info@wespa.de,53.54276,8.57966,"4,385,788"
Wartburg-Sparkasse,info@wartburg-sparkasse.de,50.975,10.32216,"2,220,306"
Waldecker Bank eG,info@waldecker-bank.de,51.27436,8.87206,"1,261,969"
VR-Bankverein Bad Hersfeld-Rotenburg eG,info@vr-bankverein.de,50.86813,9.70685,"1,077,031"
VR-Bank Westmünsterland eG,info@vr-bank-westmuensterland.de,51.94589,7.16911,"3,301,091"
"VR-Bank Werdenfels eG, Garmisch-Partenkirchen",info@vr-werdenfels.de,47.49237,11.09628,"2,048,117"
VR-Bank Uckermark-Randow eG,info@vrb-uckermark-randow.de,53.3167,13.86658,"841,353"
VR-Bank Taufkirchen-Dorfen eG,info@vr-bank-online.de,48.3442,12.13113,"1,141,434"
VR-Bank Südwestpfalz eG Pirmasens - Zweibrücken,info@vrbank-suedwestpfalz.de,49.1997,7.60878,"855,857"
VR-Bank Spangenberg-Morschen eG,info@vrb-spangenberg.de,51.11671,9.66672,"164,187"
"VR-Bank Rottal-Inn eG, Pfarrkirchen",info@vrbk.de,48.43126,12.9382,"3,965,824"
VR-Bank Passau eG,info@vr-bank-passau.de,48.57482,13.46097,"2,348,253"
"VR-Bank Ostbayern-Mitte eG, Straubing",info@vr-obm.de,48.88198,12.56972,"2,008,019"
VR-Bank Ostalb eG,info@vrbank-ostalb.de,48.83627,10.09318,"2,152,809"
VR-Bank NordRhön eG,info@vr-bank-nordrhoen.de,50.67303,9.76612,"1,586,225"
VR-Bank Nordeifel eG,info@vr-banknordeifel.de,50.52859,6.47616,"917,924"
VR-Bank Niederbayern-Oberpfalz eG,info@meine-bank-no.de,49.01953,12.09749,"2,084,289"
VR-Bank Neu-Ulm eG,info@vrnu.de,48.3955,10.00589,"2,321,585"
VR-Bank Mittelsachsen eG,info@vr-bank-mittelsachsen.de,50.91694,13.34289,"953,302"
VR-Bank Mittelfranken Mitte,info@vr-mfr.de,49.30286,10.57223,"2,426,496"
VR-Bank Mitte eG,info@vrbankmitte.de,51.51237,10.26107,"2,634,893"
VR-Bank Memmingen eG,info@vr-memmingen.de,47.98677,10.18132,"1,303,359"
"VR-Bank Main-Rhön eG, Schweinfurt",info@vr-bank-mr.de,50.04999,10.2333,"2,483,259"
VR-Bank Ludwigsburg eG,info@vrbank-lb.de,48.89539,9.18951,"6,112,436"
VR-Bank Lichtenfels-Ebern eG,info@oldenburger-volksbank.de,50.14568,11.06382,"951,677"
VR-Bank Landshut eG,info@vrla.de,48.53622,12.15166,"684,327"
VR-Bank Landsberg-Ammersee eG,info@vr-ll.de,48.0515,10.87377,"1,040,275"
VR-Bank Landau-Mengkofen eG,info@vrbanklm.de,48.67288,12.69413,"1,560,267"
VR-Bank Ismaning Hallbergmoos Neufahrn eG,info@vrbank-ihn.de,48.22424,11.67153,"1,235,192"
"VR-Bank Isar-Vils eG, Vilsbiburg",info@vrbank-isar-vils.de,48.44848,12.3558,"1,262,992"
VR-Bank in Südoldenburg eG,info@vrbank-suedoldenburg.de,52.95543,8.02255,"1,291,164"
VR-Bank in Südniedersachsen eG,info@vrbanksn.de,51.84476,9.56356,"1,300,991"
VR-Bank in Mittelbaden eG,info@vr-miba.de,48.82092,8.14213,"1,091,278"
VR-Bank Hunsrück-Mosel eG,info@vr-bank-hm.de,49.81025,7.12424,"432,184"
"VR-Bank Handels- und Gewerbebank eG, Gersthofen",info@vrbank-hg.de,48.42482,10.87786,"2,677,547"
VR-Bank Gerolzhofen eG,info@vrbank-geo.de,49.90036,10.34877,"489,418"
VR-Bank Freudenberg-Niederfischbach eG,info@vr-bank-freudenberg-niederfischbach.de,50.89837,7.87737,"256,769"
VR-Bank Fläming-Elsterland eG,info@vr-internet.de,52.0902,13.17419,"1,067,065"
"VR-Bank Fichtelgebirge-Frankenwald eG, Marktredwitz",info@vr-ff.de,50.00099,12.08564,"752,170"
VR-Bank Feuchtwangen-Dinkelsbühl eG,info@vrbank-feuchtwangen-dinkelsbuehl.de,49.06923,10.32235,"1,473,949"
VR-Bank Erding eG,info@vr-bank-erding.de,48.30644,11.90766,"1,610,947"
VR-Bank Ellwangen eG,info@vrbank-ellwangen.de,48.9616,10.13198,"1,114,117"
VR-Bank Ehningen-Nufringen eG,info@vrben.de,48.65926,8.94051,"225,644"
VR-Bank eG Osnabrücker Nordland,info@vrbank-osnordland.de,52.51679,7.67496,"721,726"
VR-Bank eG Magstadt-Weissach,info@vrbank-mw.de,48.74235,8.96281,"282,749"
VR-Bank eG,info@vrbank-eg.de,50.81787,6.13411,"1,659,305"
VR-Bank Dornstetten-Horb eG,info@vrdh.de,48.46636,8.5013,"640,000"
"VR-Bank Donau-Mindel eG, Dillingen",info@vr-dm.de,48.58125,10.49514,"1,877,551"
VR-Bank Coburg eG,info@vrbank-coburg.de,50.25811,10.96446,"1,594,106"
VR-Bank Bonn Rhein-Sieg eG,info@vrbank-brs.de,50.79283,7.20708,"4,473,246"
VR-Bank Bad Salzungen Schmalkalden eG,info@vrb-meinebank.de,50.81232,10.23208,"1,530,718"
VR-Bank Altenburger Land eG,info@vrbank-altenburgerland.de,50.89715,12.352,"763,455"
VR-Bank Alb-Blau-Donau eG,info@vrbankabd.de,48.28285,9.72622,"1,025,085"
VR Smart Finanz Bank GmbH,info@vr-smart-finanz.de,50.14264,8.57163,"1,740,552"
VR PLUS Altmark-Wendland eG,info@vr-plus.de,53.68937,10.53224,"1,005,574"
VR PartnerBank eG Chattengau-Schwalm-Eder,info@vr-partnerbank.de,51.13132,9.54387,"1,505,199"
"VR GenoBank DonauWald eG, Viechtach",info@vr-genobank.de,49.08007,12.88627,"1,834,289"
VR Bank zwischen den Meeren eG,info@meine-vrbank.de,54.07574,9.98154,"3,812,608"
VR Bank Westthüringen eG,info@vrb-westthueringen.de,51.21777,10.45483,"1,058,627"
VR Bank Westküste eG,info@vrbank-westkueste.de,54.48536,9.05382,"2,363,136"
VR Bank Weimar eG,info@vrbank-weimar.de,50.98105,11.32966,"531,643"
VR Bank Südpfalz eG,info@vrbank-suedpfalz.de,49.19828,8.11234,"2,779,691"
VR Bank Südliche Weinstraße-Wasgau eG,info@vrbank-sww.de,49.10281,7.99913,"1,762,636"
VR Bank Schleswig-Mittelholstein eG,info@vr-sl-mh.de,54.28827,9.69426,"1,733,024"
VR Bank Riedlingen-Federsee eG,info@vrbank-rf.de,48.15344,9.47488,"930,558"
VR Bank Rhein-Neckar eG,info@vrbank.de,49.48929,8.46731,"5,070,866"
VR Bank Rhein-Mosel eG,info@vrbrm.de,50.43024,7.4663,"1,803,478"
VR Bank Ravensburg-Weingarten eG,info@vrbank-rv-wgt.de,47.7811,9.61247,"1,387,743"
VR Bank Oldenburg Land eG,info@.vrbank-oldenburgland.de,52.8971,8.43643,"1,160,155"
"VR Bank Oberfranken Mitte eG, Kulmbach",info@vr-ofrm.de,50.10084,11.44791,"1,437,883"
VR Bank Nord eG,info@vrbanknord.de,54.7833,9.43333,"4,769,739"
VR Bank Neuburg-Rain eG,info@vr-neuburg-rain.de,48.7372,11.17953,"1,430,111"
"VR Bank München Land eG, Oberhaching",info@vr-bank-muenchen-land.de,48.02614,11.59632,"2,328,903"
"VR Bank Mittlere Oberpfalz eG, Schwandorf",info@vr-mio.de,49.32619,12.10927,"1,289,345"
VR Bank Mittelhaardt eG,info@vrbank-mittelhaardt.de,49.46329,8.17051,"662,190"
VR Bank Metropolregion Nürnberg eG,info@vr-teilhaberbank.de,49.58191,10.60774,"5,446,255"
VR Bank Mecklenburg eG,info@vrbankmecklenburg.de,53.62883,11.4148,"2,331,766"
VR Bank Main-Kinzig-Büdingen eG,info@vrbank-mkb.de,50.29724,9.09908,"3,818,316"
VR Bank Lausitz eG,info@vrblausitz.de,51.75674,14.33573,"740,551"
VR Bank Lahn-Dill eG,info@vrbank-lahndill.de,50.74045,8.2875,"2,262,204"
VR Bank Kitzingen eG,info@vrkt.de,49.73398,10.16122,"889,947"
VR Bank in Holstein eG,info@vrbank-in-holstein.de,53.72789,9.69796,"3,460,011"
VR Bank Ihre Heimatbank eG,info@vr-heimatbank.de,50.97471,10.31936,"875,087"
VR Bank Hohenneuffen-Teck eG,info@vrbankht.de,48.59351,9.36036,"1,030,434"
VR Bank HessenLand eG,info@vrbank-hessenland.de,50.75235,9.26836,"2,417,499"
VR Bank Heilbronn Schwäbisch Hall eG,info@vrbank-hsh.de,49.1124,9.7369,"4,988,686"
VR Bank Fulda eG,info@vrbankfulda.de,50.55423,9.67704,"2,358,635"
VR Bank Enz plus eG,info@volksbank-pur.de,48.95203,8.5706,"1,569,782"
VR Bank eG Monheim,info@vrbankeg.de,48.84236,10.85627,"1,533,804"
VR Bank eG Heuberg-Winterlingen,info@vrbank-hw.de,48.1806,8.96191,"507,672"
VR Bank eG Bergisch Gladbach-Leverkusen,info@vrbankgl.de,50.99293,7.12774,"2,635,986"
VR BANK Dinklage-Steinfeld eG,info@vr-bank-dinklage-steinfeld.de,52.66318,8.12184,"619,228"
VR Bank Bayreuth-Hof eG,info@vrbank-bayreuth-hof.de,49.94272,11.57631,"2,633,800"
VR Bank Bamberg-Forchheim eG Volks- Raiffeisenbank,info@vrbank-bamberg-forchheim.de,49.8916,10.88685,"3,478,775"
VR Bank Bad Orb-Gelnhausen eG,info@vbrb.de,50.20286,9.19049,"589,988"
VR Bank Augsburg-Ostallgäu eG,info@vrbank-augsburg-ostallgaeu.de,48.3668,10.8987,"4,024,329"
VR Bank Alzey-Land-Schwabenheim eG,info@vr-bank-alzey-land-schwabenheim.de,49.85032,7.9513,"126,720"
VR Bank Alsheim eG,info@vrbank-alsheim.de,49.76565,8.34179,"140,153"
Volksbank-Raiffeisenbank Glauchau eG,info@vr-glauchau.de,50.8199,12.53979,"466,821"
Volksbank-Raiffeisenbank Amberg eG,info@vr-as.de,49.44542,11.85873,"1,078,608"
Volksbank Zwickau eG,info@volksbank-zwickau.de,50.7185,12.49393,"227,439"
Volksbank Zuffenhausen eG,info@voba-zuff.de,48.77845,9.18001,"727,645"
Volksbank Wümme Wieste,info@volksbank-wuemme-wieste.de,53.11618,9.23544,"743,503"
Volksbank Worpswede eG,info@voba-worpswede.de,53.223,8.92835,"114,945"
Volksbank Wolfenbüttel eG,info@volksbank-mit-herz.de,52.16253,10.53482,"2,761,927"
Volksbank Wittgenstein eG,info@volksbank-wittgenstein.de,51.04785,8.39178,"263,729"
Volksbank Wittenberg eG,info@volksbank-wittenberg.de,51.86665,12.64676,"245,999"
Volksbank Wißmar eG,info@volksbank-wissmar.de,50.63727,8.64896,"87,463"
Volksbank Winsener Marsch eG,info@vbwinsenermarsch.de,53.39543,10.34861,"230,798"
Volksbank Wilhelmshaven eG,info@vobawhv.de,53.52788,8.1063,"620,343"
Volksbank Wickede (Ruhr) eG,info@vb-wickede.de,51.49605,7.8696,"173,471"
Volksbank Westerstede eG,info@vb-westerstede.de,53.25752,7.92734,"465,402"
Volksbank Westerkappeln-Saerbeck eG,info@vb-ws.de,52.31417,7.87722,"269,646"
Volksbank Westenholz eG,info@vb-westenholz.de,51.76492,8.5595,"82,879"
Volksbank Weschnitztal eG,info@volksbank-weschnitztal.de,49.22823,12.88446,"485,876"
Volksbank Welzheim eG,info@vrbsw.de,48.87492,9.63474,"1,025,378"
Volksbank Warendorf eG,info@volksbank-eg.de,51.95324,7.99123,"2,691,403"
Volksbank Vorpommern eG,info@vbvorpommern.de,54.09579,13.38152,"893,223"
Volksbank Vogtland-Saale-Orla eG,info@vb-vso.de,50.49506,12.13465,"948,488"
Volksbank Visbek eG,info@vbvisbek.de,52.83377,8.31485,"265,988"
Volksbank Viersen eG,info@olksbankviersen.de,51.25621,6.39055,"1,105,721"
Volksbank Versmold eG,info@volksbank-versmold.de,52.04167,8.14939,"255,141"
Volksbank Vechta eG,info@vbvechta.de,52.73107,8.28732,"1,514,080"
Volksbank Ulrichstein eG,info@volksbank-ulrichstein.de,50.57597,9.19296,"74,943"
Volksbank Ulm-Biberach eG,info@volksbank-ulm-biberach.de,48.3974,9.99343,"3,446,421"
Volksbank Uelzen-Salzwedel eG,info@vb-ue-saw.de,52.98407,10.53859,"994,490"
Volksbank Überwald-Gorxheimertal eG,info@vbuego.de,49.54334,8.78807,"257,800"
Volksbank Überlingen eG,info@volksbank-ueberlingen.de,47.76672,9.16665,"1,933,094"
Volksbank Überherrn eG,info@vb-ueberherrn.de,49.24477,6.70002,"109,359"
Volksbank Trossingen eG,info@volksbank-trossingen.de,48.07506,8.6363,"306,899"
Volksbank Trier eG,info@volksbank-trier.de,49.75962,6.64419,"2,268,424"
Volksbank Thüringen Mitte eG,info@volksbank-thueringen-mitte.de,50.9778,11.02874,"1,341,500"
Volksbank Sulmtal eG,info@volksbank-sulmtal.de,49.1424,9.43583,"609,470"
Volksbank Südmünsterland-Mitte eG,info@vobadirekt.de,51.77178,7.44464,"1,221,390"
Volksbank Südkirchen-Capelle-Nordkirchen eG,info@volksbank-nordkirchen.de,51.73802,7.52518,"185,382"
Volksbank Süd-Emsland eG,info@vbsuedemsland.de,52.36732,7.46703,"1,010,235"
Volksbank Stuttgart eG,info@volksbank-stuttgart.de,48.77845,9.18001,"8,899,645"
Volksbank Störmede-Hörste eG,info@voba-sh.de,51.63953,8.51258,"198,827"
Volksbank Stendal eG,info@vbstendal.de,52.60508,11.85943,"295,785"
Volksbank Staufen eG,info@volksbank-staufen.de,47.88321,7.73293,"969,644"
Volksbank Stade-Cuxhaven eG,info@vobaeg.de,53.59979,9.47544,"1,770,698"
Volksbank Sprockhövel eG,info@vbsprockhoevel.de,51.36666,7.24859,"696,086"
Volksbank Spree-Neiße eG,info@vbspn.de,51.74386,14.64554,"330,568"
Volksbank Solling eG,info@vbsolling.de,51.6528,9.8322,"476,959"
Volksbank Senden eG,info@vb-senden.de,48.32437,10.04681,"343,243"
Volksbank Selm-Bork eG,info@vb-selm-bork.de,51.70055,7.46861,"410,228"
VOLKSBANK SELIGENSTADT EG,info@voba-seligenstadt.de,50.04417,8.97551,"188,747"
Volksbank Schwarzwald-Donau-Neckar eG,info@vbsdn.de,47.98443,8.81866,"2,256,225"
Volksbank Schwanewede eG,info@voba-schwanewede.de,53.22547,8.59433,"98,553"
Volksbank Schupbach eG,info@volksbank-schupbach.de,50.46339,8.14569,"135,892"
Volksbank Schnathorst eG,info@vb-schnathorst.de,52.27395,8.67044,"357,670"
Volksbank Schlangen eG,info@volksbank-schlangen.de,51.81468,8.845,"249,745"
Volksbank Schermbeck eG,info@vb-schermbeck.de,51.69261,6.87022,"712,958"
Volksbank Sauerland eG,info@vb-sauerland.de/,51.40024,8.06059,"4,030,091"
Volksbank Sangerhausen eG,info@volksbank-sangerhausen.de,51.47298,11.29819,"179,724"
Volksbank Sandhofen eG,info@vobasandhofen.de,49.48929,8.46731,"258,558"
Volksbank Ruhr Mitte eG,info@vb-ruhrmitte.de,51.51103,7.09601,"2,630,572"
Volksbank Rottweil eG,info@volksbank-rottweil.de,48.16553,8.62513,"1,164,442"
Volksbank Rot eG,info@volksbank-rot.de,49.26722,8.61145,"154,169"
Volksbank Rietberg eG,info@volksbank-rietberg.de,51.80741,8.42866,"1,014,091"
Volksbank Riesa eG,info@volksbank-riesa.de,51.30382,13.30883,"474,429"
Volksbank Rheinböllen eG,info@voba-rheinboellen.de,50.00585,7.67017,"226,199"
Volksbank RheinAhrEifel eG,info@voba-rheineifel.de,50.35333,7.5944,"4,425,293"
Volksbank Rhein-Wehra eG,info@volksbank-rhein-wehra.de,47.55255,7.94954,"1,463,733"
Volksbank Rhein-Ruhr eG,info@volksbank-rhein-ruhr.de,51.435,6.75956,"2,192,084"
Volksbank Rhein-Nahe-Hunsrück eG,info@voba-rnh.de,49.84896,7.86281,"2,077,198"
Volksbank Rhein-Lippe eG,info@volksbank-rhein-lippe.de,51.65769,6.61709,"1,679,223"
Volksbank Rhein-Lahn-Limburg eG,info@voba-rll.de,50.36942,8.01745,"2,504,055"
Volksbank Rhein-Erft-Köln eG,info@voba-rhein-erft-koeln.de,50.88074,6.87657,"2,889,415"
Volksbank Rhede eG,info@volksbank-rhede.de,51.83631,6.69609,"827,470"
Volksbank Remseck eG,info@volksbank-remseck.de,48.87495,9.2649,"292,592"
Volksbank Rathenow eG,info@vbrn.de,52.60639,12.33826,"362,688"
Volksbank Raiffeisenbank Würzburg eG,info@vr-bank-wuerzburg.de,49.79245,9.93297,"2,309,461"
Volksbank Raiffeisenbank Starnberg-Herrsching-Landsberg eG,info@vrsta.de,48.0001,11.3509,"3,112,207"
Volksbank Raiffeisenbank Regensburg-Schwandorf eG,info@volksbank-raiffeisenbank-regensburg-schwandorf.de,49.01953,12.09749,"1,766,254"
"Volksbank Raiffeisenbank Oberbayern Südost eG, Bad Reichenhall",info@vrbank-obb-so.de,47.72227,12.87609,"2,056,411"
"Volksbank Raiffeisenbank Nordoberpfalz eG, Weiden",info@vr-nordoberpfalz.de,49.80683,7.3007,"3,919,821"
Volksbank Raiffeisenbank Niederschlesien eG,info@vrb-niederschlesien.de,51.15632,14.99102,"529,367"
Volksbank Raiffeisenbank Meißen Großenhain eG,info@vr-meissen.de,51.16309,13.47049,"580,099"
Volksbank Raiffeisenbank Fürstenfeldbruck eG,info@vrbank-ffb.de,48.18138,11.23821,"2,128,174"
Volksbank Raiffeisenbank eG,info@vreg.de,53.91945,9.51724,"3,640,727"
Volksbank Raiffeisenbank Dachau eG,info@vr-dachau.de,48.25925,11.43544,"2,642,145"
"Volksbank Raiffeisenbank Bayern Mitte eG, Ingolstadt",info@vr-bayernmitte.de,48.76302,11.42504,"5,077,819"
Volksbank Raiffeisenbank Bad Kissingen eG,info@die-vrbank.de,50.19857,10.07468,"1,263,041"
Volksbank Raiffeisenbank,info@vvr-bank.de,48.23053,9.87716,"1,526,150"
Volksbank Raesfeld und Erle eG,info@vbraesfeldunderle.de,51.76938,6.83824,"301,014"
Volksbank Plochingen eG,info@volksbank-plochingen.de,48.71117,9.4185,"1,918,126"
Volksbank Pirna eG,info@volksbank-pirna.de,50.96169,13.93866,"576,035"
Volksbank Pfullendorf eG,info@volksbank-pfullendorf.de,47.9246,9.2533,"239,303"
Volksbank Oyten eG,info@vboyten.de,53.05945,9.01887,"227,895"
Volksbank Ostlippe eG,info@volksbank-ostlippe.de,51.94243,9.0919,"239,605"
Volksbank Olpe-Wenden-Drolshagen eG,info@voba-owd.de,51.02946,7.84389,"911,101"
Volksbank Oldenburg eG,info@oldenburger-volksbank.de,53.13898,8.2146,"1,756,288"
Volksbank Ochtrup-Laer eG,info@vbol.de,52.20964,7.18861,"819,288"
Volksbank Oberberg eG,info@vb-oberberg.de,50.94785,7.55301,"4,324,112"
Volksbank Ober-Mörlen eG,info@voba-ober-moerlen.de,50.37269,8.69253,"163,809"
Volksbank Nottuln eG,info@volksbank-nottuln.de,51.93025,7.35339,"583,294"
Volksbank Nordschwarzwald eG,info@volksbank-nordschwarzwald.de,48.52598,8.56488,"514,379"
Volksbank Nordhümmling eG,info@vb-nordhuemmling.de,52.91291,7.53524,"240,650"
Volksbank Nordharz eG,info@vbnh.de,51.90599,10.42663,"414,786"
Volksbank Niedersachsen-Mitte eG,info@volksbank-niedersachsen-mitte.de,52.8065,9.13957,"2,220,579"
Volksbank Niederrhein eG,info@volksbank-niederrhein.de,51.57675,6.51288,"2,006,324"
Volksbank Niedergrafschaft eG,info@voba-niedergrafschaft.de,52.49376,6.88615,"551,789"
Volksbank Neckartal eG,info@volksbank-neckartal.de,49.46353,8.98552,"2,504,818"
Volksbank Münsterland Nord eG,info@volksbank-mn.de,51.96251,7.62519,"7,213,328"
Volksbank Münsingen eG,info@volksbank-muensingen.de,48.41286,9.49479,"548,416"
Volksbank Mönchengladbach eG,info@voba-mg.de,51.1947,6.43536,"2,673,459"
Volksbank Möckmühl eG,info@voba-moeckmuehl.de,49.3233,9.36114,"902,691"
Volksbank Mittweida eG,info@volksbank-mittweida.de,50.98546,12.98105,"2,551,893"
Volksbank Mittleres Erzgebirge eG,info@volksbank-mittleres-erzgebirge.de,50.6564,13.34524,"374,807"
Volksbank Mittlerer Schwarzwald eG,info@voba-msw.de,48.29858,8.22261,"1,438,632"
Volksbank Mittlerer Neckar eG,info@v-mn.de,48.74276,9.30717,"4,806,517"
Volksbank Mittelhessen eG,info@vb-mittelhessen.de,50.58621,8.67423,"10,257,855"
Volksbank Meßkirch eG Raiffeisenbank,info@volksbank-messkirch.de,47.99238,9.11426,"472,689"
Volksbank Marl-Recklinghausen eG,info@vb-marl-recklinghausen.de,51.64858,7.08291,"1,275,986"
Volksbank Mainspitze eG,info@voba-mainspitze.de,49.98453,8.3255,"694,503"
Volksbank Main-Tauber eG,info@vobamt.de,49.62297,9.66271,"2,927,876"
Volksbank Magdeburg eG,info@volksbank-magdeburg.de,52.13159,11.63996,"1,052,095"
Volksbank Lüneburger Heide eG,info@vblh.de,53.832,10.01568,"4,024,982"
Volksbank Lübeck eG,info@volksbank-luebeck.de,53.86644,10.68474,"1,150,835"
Volksbank Lübbecker Land eG,info@volksbank-luebbecker-land.de,52.30272,8.61831,"1,260,277"
Volksbank Lohne-Mühlen eG,info@vblohne-muehlen.de,52.66526,8.23635,"631,609"
Volksbank Löbau-Zittau eG,info@vb-loebau-zittau.de,51.00073,14.59866,"752,266"
Volksbank Lindenberg eG,info@volksbank-lindenberg.de,47.60156,9.88639,"390,334"
Volksbank Limbach eG,info@vb-limbach.de,50.7012,7.79998,"109,931"
Volksbank Leonberg-Strohgäu eG,info@vbleos.de,48.8013,9.015,"1,755,928"
Volksbank Lauterecken eG,info@vb-lauterecken.de,49.65004,7.592,"291,906"
Volksbank Lauterbach-Schlitz eG,info@volksbank-aktiv.de,50.63789,9.39826,"711,192"
Volksbank Lastrup eG,info@vblastrup.de,52.7964,7.86427,"183,650"
Volksbank Langendernbach eG,info@volksbank-langendernbach.de,50.50877,8.01567,"118,159"
Volksbank Lahr eG,info@volksbank-lahr.de,49.94403,6.29096,"3,120,383"
Volksbank Kurpfalz eG,info@volksbank-kurpfalz.de,49.40936,8.69472,"3,736,269"
Volksbank Krefeld eG,info@vbkrefeld.de,51.33312,6.56233,"2,276,717"
Volksbank Krautheim eG,info@vobak.de,49.38618,9.63463,"187,202"
Volksbank Kraichgau eG,info@vbkraichgau.de,49.29426,8.69871,"6,252,923"
Volksbank Köthen eG,info@vb-abi.de,51.75,11.9667,"170,401"
Volksbank Köln Bonn eG,info@volksbank-koeln-bonn.de,50.73585,7.10066,"6,022,380"
Volksbank Kleverland eG,info@volksbank-kleverland.de,51.78548,6.13137,"870,219"
Volksbank Klettgau-Wutöschingen eG,info@voba-kw.de,47.65962,8.36518,"1,021,736"
Volksbank Kirnau eG,info@volksbank-kirnau.de,49.01996,10.03017,"267,574"
Volksbank Kierspe eG,info@volksbank-kierspe.de,51.12785,7.60065,"156,512"
Volksbank Kempen-Grefrath eG,info@vb-kempen.de,51.36421,6.4195,"532,992"
Volksbank Kassel Göttingen eG,info@volksbank-kassel-goettingen.de,51.31545,9.49241,"3,407,199"
Volksbank Karlsruhe Baden-Baden eG,info@volksbank-pur.de,49.00687,8.40342,"7,139,192"
Volksbank Kaiserslautern eG,info@vobakl.de,49.44322,7.769,"1,604,687"
Volksbank Jever eG,info@volksbank-jever.de,53.57364,7.90207,"1,286,645"
Volksbank Jerichower Land eG,info@vb-jerichower-land.de,49.96003,6.35121,"431,126"
Volksbank in Südwestfalen eG,info@vbinswf.de,50.87498,8.02272,"4,294,570"
Volksbank in Schaumburg und Nienburg eG,info@shg-aktuell.de,52.2611,9.0489,"2,670,032"
Volksbank in der Hohen Mark eG,info@vb-hm.de,51.8311,7.04418,"673,513"
VOLKSBANK IMMENSTADT eG,info@volksbank-immenstadt.de,47.55911,10.2138,"95,054"
Volksbank im Wesertal eG,info@vb-iw.de,52.12026,9.54933,"331,891"
Volksbank im Hochsauerland eG,info@vb-im-hochsauerland.de,51.25468,8.17144,"693,536"
Volksbank im Harz eG,info@vbimharz.de,51.72784,10.25082,"550,256"
Volksbank im Bergischen Land eG,info@bergische-volksbank.de,51.17987,7.19435,"3,025,488"
Volksbank Hohenzollern-Balingen eG,info@voba-hoba.de,48.27375,8.85579,"1,635,886"
Volksbank Hohenlohe eG,info@vb-hohenlohe.de,49.2005,9.50244,"2,052,164"
Volksbank Hohenlimburg eG,info@vb-hohenlimburg.de,51.35829,7.4733,"677,294"
Volksbank Hochrhein eG,info@volksbank-hochrhein.de,47.62818,8.24086,"1,611,215"
Volksbank Heuchelheim eG,info@voba-heuchelheim.d,50.58253,8.6306,"587,788"
Volksbank Herrenberg-Nagold-Rottenburg eG,info@vbidr.de,48.55124,8.72349,"4,337,266"
Volksbank Herford-Mindener Land eG,info@meinevolksbank.de,52.11522,8.67111,"4,550,733"
Volksbank Hellweg eG,info@volksbank-hellweg.de,51.57255,8.10613,"2,004,139"
Volksbank Heinsberg eG,info@volksbank-heinsberg.de,51.06543,6.09845,"1,774,895"
Volksbank Heimbach eG,info@vb-heimbach.de,49.61415,7.24819,"77,986"
Volksbank Heiden eG,info@vbheiden.de,51.82656,6.93405,"370,343"
Volksbank Haselünne eG,info@vbhaseluenne.de,52.67187,7.48305,"458,754"
Volksbank Hamm/Sieg eG,info@volksbank-hamm.de,51.68041,7.8152,"150,885"
Volksbank Hameln-Stadthagen eG,info@volksbank-hameln-stadthagen.de,52.10399,9.35616,"1,800,490"
Volksbank Halle/Westf. eG,info@vb-halle.de,52.06034,8.36156,"699,096"
Volksbank Halle (Saale) eG,info@vbhalle.de,51.4825,11.97055,"1,299,836"
Volksbank Haaren eG,info@vbhaaren.de,51.06673,5.98881,"118,119"
Volksbank Gronau-Ahaus eG,info@vbga.de,52.21185,7.02363,"4,057,503"
Volksbank Grebenhain eG,info@vb-grebenhain.de,50.49645,9.32546,"143,000"
Volksbank Göppingen eG,info@volksbank-goeppingen.de,48.70314,9.65411,"2,810,700"
Volksbank GMHütte-Hagen-Bissendorf eG (GHB),info@vbghb.de,52.2,8.05,"640,291"
Volksbank Glan-Münchweiler eG,info@voba-glm.de,49.47205,7.44062,"781,891"
Volksbank Gescher eG,info@vb-gescher.de,51.95687,7.00388,"543,798"
Volksbank Gemen eG,info@vb-gemen.de,51.84432,6.85822,"226,580"
Volksbank Geeste-Nord eG,info@vbgn.de,53.58154,8.63497,"224,966"
Volksbank Geest eG,info@vbgeest.de,53.43528,9.61632,"620,430"
Volksbank Gebhardshain eG,info@vbgebhardshain.de,50.7469,7.82186,"189,039"
Volksbank Gardelegen eG,info@volksbank-gardelegen.de,52.52656,11.39298,"146,074"
Volksbank Friedrichshafen-Tettnang eG,info@volksbank-fntt.de,47.67166,9.58912,"1,776,402"
Volksbank Freiburg eG,info@volksbank-freiburg.de,47.99609,7.8494,"4,140,924"
Volksbank Franken eG,info@volksbank-franken.de/,49.5223,9.32432,"1,328,289"
Volksbank Flein-Talheim eG,info@vb-flein-talheim.de,49.10059,9.21386,"276,943"
Volksbank Filder eG,info@volksbank-filder.de,50.675,13.4667,"1,160,267"
Volksbank Feldatal eG,info@volksbank-feldatal.de,50.63916,9.18117,"61,812"
Volksbank Eutin Raiffeisenbank eG,info@vbeutin.de,54.13646,10.61591,"647,208"
Volksbank Euskirchen eG,info@eu-banking.de,50.66126,6.78712,"2,037,444"
Volksbank Ettlingen eG,info@volksbank-ettlingen.de,48.93971,8.40427,"962,853"
Volksbank Essen-Cappeln eG,info@vbessen-cappeln.de,52.81049,8.11414,"529,477"
Volksbank Esens eG,info@vbesens.de,53.64681,7.61185,"317,927"
Volksbank Ermstal-Alb eG,info@voba-ermstal-alb.de,48.53972,9.28312,"1,958,402"
Volksbank Erft eG,info@volksbank-erft.de,50.93713,6.56983,"1,966,234"
Volksbank Enniger-Ostenfelde-Westkirchen eG,info@vb-eow.de,51.83596,8.0256,"137,108"
Volksbank Emstek eG,info@vbemstek.de,52.83396,8.15495,"303,110"
Volksbank Emstal eG,info@vb-emstal.de,52.86367,7.31634,"694,068"
Volksbank Emmerich-Rees eG,info@dervolksbanker.de,51.83221,6.24283,"1,082,607"
Volksbank Elsen-Wewer-Borchen eG,info@vb-elsen-wewer-borchen.de,51.71896,8.76487,"454,603"
Volksbank Eisenberg eG,info@volksbankeisenberg.de,50.96913,11.89611,"465,427"
Volksbank Eifel eG,info@volksbank-eifel.de,49.97328,6.52495,"1,698,841"
"Volksbank eG, Löningen",info@vbloeningen.de,52.73635,7.75707,"388,793"
"Volksbank eG, Friesoythe",info@meine-volksbank-online.de,53.0207,7.85911,"901,258"
Volksbank eG Westrhauderfehn,info@fehntjer-voba.de,53.12957,7.56974,"445,988"
Volksbank eG Syke,info@volksbank-syke.de,52.84959,8.72838,"1,091,575"
Volksbank eG Südheide - Isenhagener Land - Altmark,info@vbsila.de,52.62406,10.08105,"1,979,844"
Volksbank eG Seesen/Harz,info@myvoba.de,51.89056,10.17039,"1,434,579"
Volksbank eG Osterholz Bremervörde,info@vbohz.de,53.22818,8.79482,"1,651,489"
Volksbank eG Mosbach,info@vb-mosbach.de,49.35211,9.14602,"1,213,771"
Volksbank eG im Kreis Freudenstadt,info@voba-fds.de,48.46377,8.41117,"1,353,612"
Volksbank eG Gera · Jena · Rudolstadt,info@volksbank-vor-ort.de,50.92817,11.58794,"1,784,050"
Volksbank eG Delmenhorst Schierbrok,info@vbdel.de,53.05281,8.62946,"510,977"
Volksbank eG Bremerhaven-Cuxland,info@volksbankeg.de,53.43406,8.81834,"1,418,118"
Volksbank eG Braunschweig Wolfsburg,info@volksbank-brawo.de,52.42056,10.78617,"5,746,971"
Volksbank eG Bad Laer-Borgloh-Hilter-Melle,info@voba-eg.de,52.1702,8.16862,"732,053"
Volksbank eG (Hildesheim),info@vb-eg.de,52.15216,9.9513,"2,949,478"
Volksbank eG - Die Gestalterbank,info@gestalterbank.de,48.06324,8.4945,"10,891,796"
Volksbank eG,info@vobakn.de,47.65922,9.17507,"1,546,879"
Volksbank eG,info@vbfoa.de,53.5227,9.39818,"376,298"
Volksbank Düsseldorf Neuss eG,info@deine-volksbank.de,51.2254,6.77631,"1,904,211"
Volksbank Dünnwald-Holweide eG,info@vobadhk.de,50.93836,6.95997,"222,417"
Volksbank Dresden-Bautzen eG,info@volksbank-dresden-bautzen.de,51.04933,13.73814,"2,581,481"
Volksbank Dreiländereck eG,info@vb3.de,47.61209,7.66072,"2,396,362"
Volksbank Dreieich Offenbach eG,info@vrbanking.de,50.01197,8.71239,"1,730,293"
Volksbank Dortmund-Nordwest eG,info@vbdnow.de,51.51423,7.46528,"1,116,979"
Volksbank Dettenhausen eG,info@volksbank-dettenhausen.de,48.60846,9.09836,"114,826"
Volksbank Dessau-Anhalt eG,info@vbdessau.de,51.831,12.24307,"464,180"
Volksbank Demmin eG,info@volksbank-demmin.de,53.907,13.03278,"339,175"
Volksbank Delitzsch eG,info@vb-delitzsch.de,51.52557,12.34286,"447,187"
Volksbank Delbrück-Hövelhof eG,info@volksbank-dh.de,51.76492,8.5595,"921,172"
Volksbank Deisslingen eG,info@voba-deisslingen.de,48.11215,8.60489,"351,541"
Volksbank Darmstadt - Südhessen eG,info@volksbanking.de,49.88519,8.67363,"5,287,665"
Volksbank Dammer Berge eG,info@vobda.de,52.52127,8.1958,"989,316"
Volksbank Daaden eG,info@volksbank-daaden.de,50.73917,7.96766,"266,922"
Volksbank Chemnitz eG,info@volksbank-chemnitz.de,50.83226,12.9253,"2,374,405"
Volksbank Butzbach eG,info@volksbank-butzbach.de,50.43404,8.67112,"515,840"
Volksbank Bühl eG,info@volksbank-buehl.de,48.69451,8.13442,"1,432,728"
Volksbank Bruchsal-Bretten eG,info@vb-bruchsal-bretten.de,49.03646,8.70726,"3,332,280"
Volksbank Brenztal eG,info@volksbank-brenztal.de,48.61997,10.23718,"869,719"
Volksbank Bremen-Nord eG,info@vbbremennord.de,53.07582,8.80716,"514,143"
Volksbank Breisgau-Markgräflerland eG,info@volksbank-breisgau-markgraeflerland.de,50.37216,7.00293,"2,232,866"
Volksbank Breisgau Nord eG,info@voba-breisgau-nord.de,48.13421,7.86231,"2,335,663"
Volksbank Braunlage eG,info@vbbraunlage.de,51.72644,10.61005,"215,546"
Volksbank Brandoberndorf eG,info@vb-brandoberndorf.de,50.44277,8.4944,"70,783"
Volksbank Börßum-Hornburg eG,info@vbbh.de,52.06948,10.57854,"209,569"
Volksbank Börde-Bernburg eG,info@volksbank-boerde-bernburg.de,52.07588,11.42043,"475,423"
Volksbank Bönen eG,info@volksbank-boenen.de,51.59808,7.75885,"256,394"
Volksbank Bochum Witten eG,info@vb-bochumwitten.de,51.48181,7.21966,"1,637,531"
Volksbank Bocholt eG,info@vb-bocholt.de,51.83827,6.61487,"1,564,120"
Volksbank Bielefeld-Gütersloh eG,info@volksbank-bi-gt.de,51.9064,8.37821,"5,646,982"
Volksbank Berg eG,info@volksbank-berg.de,51.11552,7.38791,"1,506,578"
Volksbank Beilstein-Ilsfeld-Abstatt eG,info@vb-bia.de,50.10926,7.24108,"596,216"
Volksbank Beckum-Lippstadt eG,info@voba-bl.de,51.67471,8.34719,"2,458,387"
Volksbank Baumberge eG,info@volksbank-baumberge.de,51.97736,7.29092,"652,290"
Volksbank Bad Saulgau eG,info@vb-bad-saulgau.de,48.01581,9.50103,"1,442,090"
Volksbank Bad Salzuflen eG,info@vbbs.de,52.07715,8.75547,"858,004"
Volksbank Backnang eG,info@volksbank-backnang.de,48.94667,9.43052,"2,409,424"
Volksbank Ascheberg-Herbern eG,info@vb-ascheberg-herbern.de,54.14834,10.34234,"281,601"
Volksbank Anröchte eG,info@volksbank-anroechte.de,51.55979,8.32473,"422,160"
Volksbank an der Niers eG,info@vb-niers.de,51.51697,6.32282,"2,876,505"
Volksbank Ammerbuch eG,info@volksbank-ammerbuch.de,48.5526,8.94845,"307,350"
Volksbank am Württemberg eG,info@voba-aw.de,48.81816,9.27809,"1,912,242"
Volksbank Alzey-Worms eG,info@vb-alzey-worms.de,49.63026,8.36209,"4,851,417"
Volksbank Altshausen eG,info@volksbank-altshausen.de,47.93442,9.53861,"601,782"
Volksbank Allgäu-Oberschwaben eG,info@volksbank-allgaeu-oberschwaben.de,47.82661,10.0228,"3,151,820"
Volksbank Albstadt eG,info@volksbank-albstadt.de,48.23305,8.99915,"1,788,323"
Volksbank Alb eG,info@voba-alb.de,48.4975,10.1222,"787,884"
Volksbank Adelebsen eG,info@volksbank-adelebsen.de,51.57948,9.75245,"104,664"
Volksbank - Raiffeisenbank Vilshofen eG,info@vr-vilshofen.de,48.63376,13.18685,"1,024,156"
Volks- und Raiffeisenbank Saale-Unstrut eG,info@vrbsaale-unstrut.de,51.35644,11.99615,"534,191"
Volks- und Raiffeisenbank Prignitz eG,info@vrbprignitz.de,53.07627,11.86279,"1,134,753"
Volks- und Raiffeisenbank Muldental eG,info@vr-bank-muldental.de,51.23834,12.72875,"550,680"
Volks- und Raiffeisenbank Fürstenwalde Seelow Wriezen eG,info@vrbfw.de,50.76058,13.86815,"420,625"
Vereinte Volksbank eG,info@vereinte-volksbank.de,51.66041,6.96474,"1,941,137"
Vereinigte VR Bank Kur- und Rheinpfalz eG,info@vvrbank-krp.de,49.31656,8.43362,"6,412,066"
Vereinigte VR Bank eG,info@vereinigte-vrbk.de,54.68929,8.55615,"497,676"
Vereinigte Volksbanken eG,info@diebank.de,48.68497,9.01134,"5,089,396"
Vereinigte Volksbank Raiffeisenbank eG,info@vvrb.de,49.83649,8.82382,"3,835,541"
Vereinigte Volksbank Raiffeisenbank eG,info@vvr-bank.de,49.98504,6.88844,"1,189,580"
"Vereinigte Volksbank eG, Ganderkesee - Hude - Bookholzberg - Lemwerder",info@v-vb.de,54.38806,9.21481,"823,456"
Vereinigte Volksbank eG Saarlouis -,info@meine-vvb.de,49.31647,6.74985,"2,862,980"
Vereinigte Volksbank eG Bramgau Osnabrück Wittlage,info@vbank.de,52.27196,8.04764,"1,699,574"
Vereinigte Volksbank eG,info@vereinigtevolksbankeg.de,51.71689,9.18418,"1,480,261"
Vereinigte Spk. Eschenbach Neustadt Vohenstrauß,info@vspk-neustadt.de,49.62318,12.34213,"1,537,467"
Vereinigte Sparkassen Gunzenhausen,info@sparkasse-gunzenhausen.de,49.11341,10.75515,"1,123,421"
Vereinigte Sparkasse im Märkischen Kreis,info@spk-mk.de,51.21395,7.87199,"1,980,507"
Vereinigte Raiffeisenbank Burgstädt eG,info@rb-burgstaedt.de,50.91998,12.80566,"164,184"
VerbundVolksbank OWL eG,info@verbundvolksbank-owl.de,51.71896,8.76487,"7,610,004"
Verbundsparkasse Emsdetten-Ochtrup,info@spkeo.de,52.17337,7.52583,"1,286,084"
VBU Volksbank im Unterland eG,info@vbu-volksbank.de,49.07842,9.06744,"1,808,202"
"TEBA Kreditbank GmbH & Co. KG, Landau/Isar",info@teba-kreditbank.de,48.67288,12.69413,"121,175"
Taunus Sparkasse,info@tsk.de,50.21535,8.61545,"8,347,485"
Sylter Bank eG,info@sylter-bank.de,54.89682,8.35286,"631,883"
Stadtsparkasse Wuppertal,info@sparkasse-wuppertal.de,51.25516,7.14496,"8,744,072"
Stadtsparkasse Wunstorf,info@ssk-wunstorf.de,52.42643,9.42854,"689,024"
Stadtsparkasse Wermelskirchen,info@ssk-wkn.de,51.13936,7.2127,"793,303"
Stadtsparkasse Wedel,info@sparkasse-wedel.de,53.58081,9.7031,"753,090"
Stadtsparkasse Schwedt,info@ssk-schwedt.de,53.06182,14.28331,"700,305"
Stadtsparkasse Schwalmstadt,info@ssk-schwalmstadt.de,50.91124,9.18803,"264,171"
Stadtsparkasse Rheine,info@sparkasse-rheine.de,52.27811,7.43497,"1,711,271"
Stadtsparkasse Remscheid,info@stadtsparkasse-remscheid.de,51.18133,7.18549,"1,743,527"
Stadtsparkasse Rahden,info@stadtsparkasse-rahden.de,52.43284,8.61412,"562,458"
Stadtsparkasse Oberhausen,info@stadtsparkasse-oberhausen.de,51.46756,6.85538,"2,846,644"
Stadtsparkasse München,info@sskm.de,48.13657,11.57756,"24,000,700"
Stadtsparkasse Mönchengladbach,info@sparkasse-moenchengladbach.de,51.19503,6.4436,"5,746,787"
Stadtsparkasse Lengerich,info@ssk-lengerich.de,52.18915,7.85158,"507,357"
Stadtsparkasse Haltern,info@stadtsparkasse-haltern.de,51.74159,7.18348,"404,817"
Stadtsparkasse Grebenstein,info@ssk-grebenstein.de,51.44711,9.41422,"266,066"
Stadtsparkasse Gladbeck,info@sparkasse-gladbeck.de,51.57199,6.98948,"946,758"
Stadtsparkasse Düsseldorf,info@sskduesseldorf.de,51.22251,6.78217,"16,267,744"
Stadtsparkasse Dortmund,info@sparkasse-dortmund.de,51.51545,7.46086,"11,759,632"
Stadtsparkasse Dessau,info@sparkasse-dessau.de,51.83692,12.24496,"1,093,559"
Stadtsparkasse Delbrück,info@sparkasse-delbrueck.de,51.76388,8.56085,"418,410"
Stadtsparkasse Cuxhaven,info@ssk-cuxhaven.de,53.86226,8.69635,"1,147,350"
Stadtsparkasse Burgdorf,info@ssk-burgdorf.de,52.4465,10.0065,"489,296"
Stadtsparkasse Bottrop,info@sparkasse-bottrop.de,51.52144,6.9225,"1,506,076"
Stadtsparkasse Borken,info@sskborken.de,51.04787,9.27929,"208,405"
Stadtsparkasse Bocholt,info@ssk-bocholt.de,51.83606,6.61639,"1,357,458"
Stadtsparkasse Barsinghausen,info@ssk-barsinghausen.de,52.30186,9.46499,"439,309"
Stadtsparkasse Bad Pyrmont,info@ssk-bad-pyrmont.de,51.98618,9.25587,"531,630"
Stadtsparkasse Augsburg,info@sska.de,48.3648,10.89257,"7,783,841"
Städtische Sparkasse Offenbach am Main,info@sparkasse-offenbach.de,50.10498,8.76646,"1,794,732"
Stadt-Sparkasse Solingen,info@sparkasse-solingen.de,51.16958,7.0829,"3,657,521"
Stadt-Sparkasse Langenfeld,info@sparkasse-langenfeld.de,51.11326,6.95779,"1,693,579"
Stadt-Sparkasse Haan,info@stadt-sparkasse-haan.de,51.1928,7.01067,"748,174"
Stadt- und Kreissparkasse Leipzig,info@sparkasse-leipzig.de,51.3466,12.37406,"12,415,483"
Stadt- und Kreis-Sparkasse Darmstadt,info@sparkasse-darmstadt.de,49.87265,8.64924,"5,838,452"
Stadt und Kreissparkasse Moosburg,info@sparkasse-freising.de,48.46747,11.93512,"837,044"
Spreewaldbank eG,info@spreewaldbank.de,51.9419,13.89638,"538,943"
Sparkasse Zwickau,info@spk-zwickau.de,50.72079,12.48804,"3,041,030"
Sparkasse zu Lübeck AG,info@sparkasse-luebeck.de,53.87018,10.68768,"3,209,290"
Sparkasse Zollernalb,info@spkza.de,48.27582,8.85175,"4,074,475"
Sparkasse Wolfach,info@sparkasse-wolfach.de,48.29739,8.22103,"646,989"
Sparkasse Wittgenstein,info@sparkasse-wittgenstein.de,51.04906,8.39234,"976,945"
Sparkasse Wittenberg,info@sparkasse-wittenberg.de,51.86727,12.63239,"1,914,788"
Sparkasse Witten,info@sparkasse-witten.de,51.43577,7.3377,"2,462,810"
Sparkasse Wilhelmshaven,info@sparkasse-wilhelmshaven.de,53.51771,8.0994,"959,218"
Sparkasse Wiesental,info@sparkasse-wiesental.de,47.64924,7.82035,"1,328,963"
Sparkasse Wetzlar,info@sparkasse-wetzlar.de,50.55876,8.49617,"2,835,905"
Sparkasse Westmünsterland,info@sparkasse-westmuensterland.de,51.83002,7.27461,"9,982,144"
Sparkasse Westholstein,info@spk-westholstein.de,53.92674,9.513,"4,329,704"
Sparkasse Westerwald-Sieg,info@skwws.de,50.64959,7.94971,"4,014,039"
Sparkasse Werra-Meißner,info@spk-wm.de,51.19116,10.04486,"1,966,461"
Sparkasse Waldeck-Frankenberg,info@sparkasse-wa-fkb.de,51.27219,8.86659,"2,648,340"
Sparkasse Vorpommern,info@spk-vorpommern.de,54.07378,13.39299,"5,290,740"
Sparkasse Vorderpfalz,info@sparkasse-vorderpfalz.de,49.4843,8.44743,"5,666,963"
Sparkasse Vogtland,info@sparkasse-vogtland.de,50.49284,12.13971,"3,887,899"
Sparkasse Vest Recklinghausen,info@sparkasse-re.de,51.6166,7.19717,"7,623,799"
Sparkasse Unstrut-Hainich,info@spk-uh.de,51.20742,10.45791,"1,543,191"
Sparkasse Ulm,info@spkulm.de,48.39739,9.99247,"7,061,550"
Sparkasse Uelzen Lüchow-Dannenberg,info@sparkasse-uelzen.de,52.95983,10.55412,"2,670,302"
Sparkasse Uecker-Randow,info@spk-uecker-randow.de,53.50435,13.99428,"891,944"
Sparkasse Uckermark,info@spk-uckermark.de,53.31865,13.86921,"1,327,939"
Sparkasse Trier,info@sparkasse-trier.de,49.75959,6.6462,"5,270,572"
Sparkasse Tauberfranken,info@sparkasse-tauberfranken.de,49.62196,9.65978,"3,504,232"
Sparkasse Südwestpfalz,info@spk-swp.de,49.20496,7.5984,"2,785,257"
Sparkasse Südpfalz,info@sparkasse-suedpfalz.de,49.1923,8.13457,"5,611,606"
Sparkasse Südholstein,info@spk-suedholstein.de,54.08107,9.98442,"6,416,942"
Sparkasse Staufen-Breisach,info@sparkasse-staufen-breisach.de,47.8811,7.72948,"1,673,397"
Sparkasse Starkenburg,info@sparkasse-starkenburg.de,49.6398,8.64053,"2,530,858"
Sparkasse Stade-Altes Land,info@spk-sal.de,53.60015,9.47538,"2,138,232"
Sparkasse St. Blasien,info@spk-stb.de,47.76219,8.12812,"590,109"
Sparkasse Spree-Neiße,info@spk-spree-neisse.de,51.75641,14.33353,"4,872,998"
Sparkasse Sonneberg,info@spkson.de,50.35667,11.1703,"791,118"
Sparkasse SoestWerl,info@sparkasse-soestwerl.de,51.57096,8.10613,"2,881,831"
Sparkasse Siegen,info@sparkasse-siegen.de,50.87457,8.01738,"4,620,110"
Sparkasse Schwelm-Sprockhövel,info@spken.de,51.28491,7.29516,"1,545,188"
Sparkasse Schweinfurt-Haßberge,info@sparkasse-sw-has.de,50.04331,10.2289,"4,887,176"
Sparkasse Schwarzwald-Baar,info@spk-swb.de,48.05732,8.46228,"4,685,479"
Sparkasse Schwäbisch Hall - Crailsheim,info@sparkasse-sha.de,49.11203,9.73642,"4,396,184"
Sparkasse Schwaben-Bodensee,info@spk-schwaben-bodensee.de,47.98677,10.18132,"9,327,666"
Sparkasse Scheeßel,info@spk-scheessel.de,53.16784,9.4866,"780,362"
Sparkasse Schaumburg,info@spk-schaumburg.de,52.18661,9.07822,"2,969,134"
Sparkasse Salem-Heiligenberg,info@spk-salem.de,47.76644,9.2925,"1,065,908"
Sparkasse Saarbrücken,info@sparkasse-saarbruecken.de,49.23462,6.98966,"8,038,609"
Sparkasse Rottal-Inn,info@spk-ri.de,48.40405,12.76538,"2,700,360"
Sparkasse Rotenburg Osterholz,info@spk-row-ohz.de,53.29187,9.27731,"3,821,980"
Sparkasse Rosenheim-Bad Aibling,info@spk-ro-aib.de,47.85413,12.12493,"6,254,724"
Sparkasse Rhein-Nahe,info@sk-rhein-nahe.de,49.84407,7.85863,"6,281,682"
Sparkasse Rhein-Maas,info@skrm.de,51.78494,6.13596,"2,584,240"
Sparkasse Rhein-Haardt,info@sparkasse-rhein-haardt.de,49.45997,8.16951,"4,690,369"
Sparkasse Rhein Neckar Nord,info@spkrnn.de,49.48929,8.46731,"5,510,283"
Sparkasse Regensburg,info@sparkasse-regensburg.de,49.01814,12.05677,"5,032,519"
Sparkasse Regen-Viechtach,info@sparkasse-regen-viechtach.de,48.96902,13.12838,"1,794,656"
Sparkasse Rastatt-Gernsbach,info@spk-rastatt-gernsbach.de,48.85778,8.20179,"1,898,438"
Sparkasse Radevormwald-Hückeswagen,info@sk-rade.de,51.20324,7.36027,"654,878"
Sparkasse Prignitz,info@sparkasse-prignitz.de,53.15853,12.17404,"1,030,789"
Sparkasse Pfullendorf-Messkirch,info@sparkasse-pm.de,48.80711,13.5452,"1,012,142"
Sparkasse Pforzheim Calw,info@sparkasse-pforzheim-calw.de,48.89236,8.69902,"16,366,893"
Sparkasse Pfaffenhofen,info@spk-paf.de,48.52899,11.50979,"1,914,392"
Sparkasse Passau,info@sparkasse-passau.de,48.57317,13.45855,"3,689,896"
Sparkasse Paderborn-Detmold,info@sparkasse-pd.de,51.72153,8.75443,"8,978,870"
Sparkasse Ostprignitz-Ruppin,info@sparkasse-opr.de,52.92077,12.79984,"1,703,266"
Sparkasse Osterode am Harz,info@sparkasse-osterode.de,51.7292,10.24916,"1,090,307"
Sparkasse Osnabrück,info@sparkasse-osnabrueck.de,52.27504,8.05078,"8,470,943"
Sparkasse Olpe-Drolshagen-Wenden,info@sparkasse-olpe.de,51.03757,7.85873,"1,142,919"
Sparkasse Offenburg/Ortenau,info@sparkasse-offenburg.de,48.48196,7.95846,"5,204,648"
Sparkasse Oder-Spree,info@s-os.de,52.34309,14.54613,"3,527,114"
Sparkasse Odenwaldkreis,info@sparkasse-odenwaldkreis.de,49.65811,8.99495,"1,772,798"
Sparkasse Oberpfalz Nord,info@sparkasse-oberpfalz-nord.de,49.67527,12.16316,"1,804,051"
Sparkasse Oberlausitz-Niederschlesien,info@spk-on.de,50.89713,14.81019,"4,521,899"
Sparkasse Oberhessen,info@sparkasse-oberhessen.de,50.33386,8.75198,"5,679,803"
Sparkasse Nürnberg,info@sparkasse-nuernberg.de,49.45067,11.07996,"13,484,065"
Sparkasse Nienburg,info@sparkasse-nienburg.de,52.64178,9.20928,"2,187,980"
Sparkasse Niederlausitz,info@spk-niederlausitz.de,51.5186,14.00422,"2,175,301"
Sparkasse Niederbayern Mitte,info@sparkasse-niederbayern-mitte.de,48.88193,12.56862,"5,210,166"
Sparkasse Neuwied,info@sparkasse-neuwied.de,50.42897,7.46333,"2,639,216"
Sparkasse Neuss,info@sparkasse-neuss.de,51.19709,6.69329,"7,570,585"
Sparkasse Neunkirchen,info@spk-neunkirchen.de,49.34819,7.17623,"1,894,663"
Sparkasse Neumarkt-Parsberg,info@sk-neumarkt.de,49.27724,11.46055,"2,923,969"
Sparkasse Neuburg-Rain,info@spk-nd-rain.de,48.7347,11.17839,"1,375,748"
Sparkasse Neubrandenburg-Demmin,info@spk-nbdm.de,53.52391,13.25814,"1,758,637"
Sparkasse Neu-Ulm-Illertissen,info@sparkasse-neu-ulm-illertissen.de,48.39526,9.99729,"2,252,746"
Sparkasse Neckartal-Odenwald,info@sparkasse-neckartal-odenwald.de,49.3511,9.14331,"2,666,748"
Sparkasse Münsterland Ost,info@sparkasse-mslo.de,51.94159,7.60929,"12,624,329"
Sparkasse Mülheim an der Ruhr,info@spkmh.de,51.42646,6.87987,"2,954,565"
Sparkasse Muldental,info@spk-muldental.de,51.23706,12.72294,"1,328,736"
Sparkasse Mitten im Sauerland,info@sparkasse-mis.de,51.34719,8.28479,"1,753,416"
Sparkasse Mittelthüringen,info@sparkasse-mittelthueringen.de,50.97492,11.03283,"5,776,094"
Sparkasse Mittelsachsen,info@sparkasse-mittelsachsen.de,50.91539,13.34622,"3,908,614"
Sparkasse Mittelmosel Eifel Mosel Hunsrück,info@sparkasse-emh.de,49.91887,7.06848,"3,009,714"
Sparkasse Mittelholstein AG,info@spk-mittelholstein.de,54.30321,9.66783,"3,066,561"
Sparkasse Mittelfranken-Süd,info@spkmfrs.de,49.23804,11.07448,"4,431,306"
Sparkasse Minden-Lübbecke,info@spk-milue.de,52.29151,8.91372,"3,174,124"
Sparkasse Miltenberg-Obernburg,info@s-mil.de,49.70288,9.25759,"2,244,920"
Sparkasse Merzig-Wadern,info@sparkassemerzig-wadern.de,49.44025,6.63546,"2,213,380"
Sparkasse Meißen,info@spkm.de,51.30487,13.30417,"3,465,949"
Sparkasse Mecklenburg-Strelitz,info@spkmst.de,53.35882,13.06974,"821,841"
Sparkasse Mecklenburg-Schwerin,info@sparkasse-mecklenburg-schwerin.de,53.62829,11.41153,"3,763,845"
Sparkasse Mecklenburg-Nordwest,info@spk-mnw.de,53.89021,11.46584,"1,749,666"
Sparkasse Märkisches Sauerland Hemer-Menden,info@sms-hm.de,51.38667,7.76503,"1,413,006"
Sparkasse Märkisch-Oderland,info@sparkasse-mol.de,52.57697,13.88121,"2,407,988"
Sparkasse Markgräflerland,info@spk-mgl.de,47.59203,7.6158,"3,045,101"
Sparkasse Marburg-Biedenkopf,info@skmb.de,50.80691,8.76834,"5,189,275"
Sparkasse Mansfeld-Südharz,info@sparkasse-msh.de,51.52811,11.5486,"1,811,124"
Sparkasse Mainfranken Würzburg,info@sparkasse-mainfranken.de,49.7934,9.93469,"10,877,314"
Sparkasse Magdeburg,info@sparkasse-magdeburg.de,52.15178,11.63866,"4,059,543"
Sparkasse Lüneburg,info@sparkasse-lueneburg.de,53.24959,10.40685,"3,219,135"
Sparkasse Lörrach-Rheinfelden,info@sparkasse-loerrach.de,47.61462,7.66168,"3,301,279"
Sparkasse Lippstadt,info@sparkasse-lippstadt.de,51.67225,8.34579,"2,204,951"
Sparkasse Leverkusen,info@sparkasse-lev.de,51.02982,6.98902,"4,089,541"
Sparkasse Lemgo,info@sparkasse-lemgo.de,52.02837,8.89955,"3,683,366"
Sparkasse Leer Wittmund,info@sparkasse-leerwittmund.de,53.23121,7.45872,"2,832,211"
Sparkasse Laubach-Hungen,info@spk-laubach-hungen.de,50.54174,8.98665,"290,329"
Sparkasse Langen-Seligenstadt,info@sls-direkt.de,50.04604,8.95917,"4,263,718"
Sparkasse Landshut,info@sparkasse-landshut.de,48.53886,12.15547,"5,100,204"
Sparkasse Landsberg-Dießen,info@sparkasse-landsberg.de,48.0495,10.87686,"2,467,137"
Sparkasse Kulmbach-Kronach,info@s-kukc.de,50.10888,11.45265,"2,908,343"
Sparkasse Krefeld,info@sparkasse-krefeld.de,51.33253,6.56659,"10,561,838"
Sparkasse Kraichgau,info@sparkasse-kraichgau.de,49.12457,8.59593,"4,679,395"
Sparkasse Köln Bonn,info@sparkasse-koelnbonn.de,50.93541,6.94095,"28,210,611"
Sparkasse Koblenz,info@sparkasse-koblenz.de,50.35452,7.59167,"5,691,655"
Sparkasse Kinzigtal,info@sparkasse-kinzigtal.de,48.26418,8.07573,"1,788,237"
Sparkasse Kierspe-Meinerzhagen,info@spkkm.de,51.1278,7.599,"837,526"
Sparkasse Karlsruhe,info@spk-ka.de,49.0098,8.39327,"10,530,289"
Sparkasse Kaiserslautern,info@sparkasse-kl.de,49.44449,7.76872,"5,445,781"
Sparkasse Jena-Saale-Holzland,info@s-jena.de,50.92718,11.58665,"2,637,466"
Sparkasse Ingolstadt Eichstätt,info@spk-in-ei.de,48.7626,11.42583,"6,611,305"
Sparkasse im Landkreis Schwandorf,info@sparkasse-schwandorf.de,49.32746,12.10702,"2,393,037"
Sparkasse im Landkreis Neustadt/Aisch-Bad Windsheim,info@sparkasse-nea.de,49.57913,10.60791,"2,268,867"
Sparkasse im Landkreis Cham,info@spk-cham.de,49.22084,12.66907,"2,154,250"
Sparkasse Höxter,info@sparkasse-hoexter.de,51.71596,9.18108,"1,901,243"
Sparkasse Holstein,info@sparkasse-holstein.de,54.13793,10.61551,"8,406,474"
Sparkasse Hohenlohekreis,info@spk-hohenlohekreis.de,49.27902,9.68728,"2,272,241"
Sparkasse Hochschwarzwald,info@spk-hsw.de,47.96456,7.95479,"1,349,003"
Sparkasse Hochsauerland,info@sparkasse-hochsauerland.de,51.39571,8.56738,"1,395,131"
Sparkasse Hochrhein,info@sparkasse-hochrhein.de,47.62107,8.21797,"3,694,077"
Sparkasse Hochfranken,info@sparkasse-hochfranken.de,50.17046,12.12849,"4,179,688"
Sparkasse Hildesheim Goslar Peine,info@sparkasse-hgp.de,52.15225,9.9539,"9,280,322"
Sparkasse Hilden-Ratingen-Velbert,info@sparkasse-hrv.de,51.3391,7.04836,"4,030,912"
Sparkasse Herford,info@sparkasse-herford.de,52.11574,8.66903,"6,018,969"
Sparkasse Heidelberg,info@sparkasse-heidelberg.de,49.40793,8.6903,"8,264,992"
Sparkasse Hattingen,info@sparkasse-hattingen.de,51.40053,7.18541,"1,048,189"
Sparkasse Harburg-Buxtehude,info@spkhb.de,53.46199,9.98111,"4,666,104"
Sparkasse Hannover,info@sparkasse-hannover.de,52.37806,9.74371,"20,524,887"
Sparkasse Hanauerland,info@sparkasse-kehl.de,48.57232,7.81477,"1,437,926"
Sparkasse Hanau,info@sparkasse-hanau.de,50.13226,8.91777,"5,844,022"
Sparkasse Hamm,info@sparkasse-hamm.de,51.68095,7.81852,"2,280,629"
Sparkasse Hameln-Weserbergland,info@spkhw.de,52.10458,9.35628,"2,855,792"
Sparkasse Gütersloh-Rietberg,info@sparkasse-guetersloh-rietberg-versmold.de,51.90871,8.38106,"3,035,009"
Sparkasse Günzburg-Krumbach,info@spk-gz-kru.de,48.45305,10.27978,"2,353,733"
Sparkasse Gummersbach,info@sparkasse-gm.de,51.02584,7.56686,"2,437,483"
Sparkasse Grünberg,info@sparkasse-gruenberg.de,50.5929,8.95718,"393,266"
Sparkasse Göttingen,info@spk-goettingen.de,51.53396,9.92537,"4,705,642"
Sparkasse Gießen,info@sparkasse-giessen.de,50.58472,8.67658,"2,708,708"
Sparkasse Geseke,info@sparkasse-geseke.de,51.6391,8.50972,"330,623"
Sparkasse Gera-Greiz,info@spk-gera-greiz.de,50.87916,12.07988,"2,804,766"
Sparkasse Gelsenkirchen,info@sparkasse-ge.de,51.50987,7.09573,"3,883,812"
Sparkasse Fürth,info@sparkasse-fuerth.de,49.47126,10.98831,"4,102,809"
Sparkasse Fürstenfeldbruck,info@sparkasse-ffb.de,48.17767,11.25615,"4,364,795"
Sparkasse Fulda,info@sparkasse-fulda.de,50.55021,9.67789,"4,208,253"
Sparkasse Freyung-Grafenau,info@spk-frg.de,48.80711,13.5452,"1,008,738"
Sparkasse Freising,info@sparkasse-freising.de,48.40168,11.74688,"1,993,500"
Sparkasse Freiburg-Nördlicher Breisgau,info@sparkasse-freiburg.de,47.99636,7.85121,"8,001,518"
Sparkasse Forchheim,info@spk-forchheim.de,49.71776,11.06467,"2,379,040"
Sparkasse Essen,info@sparkasse-essen.de,51.45522,7.00958,"9,514,744"
Sparkasse Engen-Gottmadingen,info@sparkasse-engo.de,47.855,8.77163,"1,147,294"
Sparkasse Emsland,info@sparkasse-emsland.de,52.69348,7.29237,"4,412,793"
Sparkasse Emden,info@sparkasse-emden.de,53.36646,7.20497,"790,285"
Sparkasse Elmshorn,info@sparkasse-elmshorn.de,53.75367,9.65694,"985,813"
Sparkasse Elbe-Elster,info@spk-elbe-elster.de,51.63206,13.70861,"2,349,168"
Sparkasse Einbeck,info@sparkasse-einbeck.de,51.81793,9.86788,"613,284"
Sparkasse Düren,info@skdn.de,50.80421,6.48133,"4,966,844"
Sparkasse Duisburg,info@spk-du.de,51.4333,6.7677,"6,747,892"
Sparkasse Duderstadt,info@sparkasse-duderstadt.de,51.51144,10.2559,"814,083"
Sparkasse Donnersberg,info@sparkasse-donnersberg.de,49.62681,7.8213,"1,557,109"
Sparkasse Donauwörth,info@spk-don.de,48.71948,10.77648,"1,483,710"
Sparkasse Dillingen-Nördlingen,info@spk-dlg-noe.de,48.57709,10.49448,"2,242,409"
Sparkasse Dillenburg,info@sparkasse-dillenburg.de,50.73723,8.28881,"1,689,905"
Sparkasse Dieburg,info@sparkasse-dieburg.de,49.8656,8.92551,"3,099,658"
Sparkasse der Stadt Iserlohn,info@sparkasse-iserlohn.de,51.37558,7.70072,"1,921,759"
Sparkasse Deggendorf,info@sparkassedeggendorf.de,48.83536,12.96169,"2,642,580"
Sparkasse Dachau,info@sparkasse-dachau.de,48.25527,11.43998,"4,189,046"
Sparkasse Coburg-Lichtenfels,info@sparkasse-co-lif.de,50.25802,10.96416,"3,322,793"
Sparkasse Chemnitz,info@spk-chemnitz.de,50.83049,12.92206,"5,341,726"
Sparkasse Celle-Gifhorn-Wolfsburg,info@sparkasse-cgw.de,52.488,10.5471,"7,419,576"
Sparkasse Burgenlandkreis,info@spk-burgenlandkreis.de,51.05305,12.1241,"2,767,702"
Sparkasse Burbach-Neunkirchen,info@sparkasse-burbach-neunkirchen.de,50.74621,8.07916,"692,220"
Sparkasse Bühl,info@spk-buehl.de,48.69706,8.13359,"1,181,348"
Sparkasse Bonndorf-Stühlingen,info@sparkasse-bonndorf-stuehlingen.de,47.81986,8.34266,"646,082"
Sparkasse Bodensee,info@sparkasse-bodensee.de,47.65388,9.47585,"5,303,713"
Sparkasse Bochum,info@sparkasse-bochum.de,51.4805,7.21928,"8,739,075"
Sparkasse Bielefeld,info@sparkasse-bielefeld.de,52.00832,8.56694,"8,044,035"
Sparkasse Bergkamen-Bönen,info@spk-bergkamen-boenen.de,51.61582,7.63051,"677,697"
Sparkasse Berchtesgadener Land,info@sparkasse-bgl.de,47.72794,12.87875,"2,029,478"
Sparkasse Bensheim,info@sparkasse-bensheim.de,49.68119,8.61986,"2,352,598"
Sparkasse Beckum-Wadersloh,info@sparkasse-beckum.de,51.7552,8.03773,"1,062,151"
Sparkasse Bayreuth,info@sparkasse-bayreuth.de,49.94611,11.57655,"2,952,396"
Sparkasse Battenberg (Eder),info@sparkasse-battenberg.de,51.01555,8.64399,"267,214"
Sparkasse Barnim,info@sparkasse-barnim.de,52.83485,13.81692,"2,556,732"
Sparkasse Bamberg,info@sparkasse-bamberg.de,49.89919,10.92204,"4,722,924"
Sparkasse Baden-Baden Gaggenau,info@spk-bbg.de,48.76087,8.23942,"2,280,619"
Sparkasse Bad Tölz-Wolfratshausen,info@spktw.de,47.76091,11.5733,"3,103,839"
Sparkasse Bad Oeynhausen - Porta Westfalica,info@spkbopw.de,52.20364,8.79941,"1,530,773"
Sparkasse Bad Neustadt a.d. Saale,info@sparkasse-badneustadt.de,50.32436,10.22118,"1,620,222"
Sparkasse Bad Kissingen,info@spk-kg.de,50.20044,10.07843,"1,862,415"
Sparkasse Bad Hersfeld-Rotenburg,info@spk-hef.de,50.86972,9.71549,"2,568,222"
Sparkasse Aurich-Norden in Ostfriesland,info@sparkasse-aurich-norden.de,53.47051,7.48263,"2,685,738"
Sparkasse Attendorn Lennestadt Kirchhundem,info@sparkasse-alk.de,51.12583,7.90154,"1,229,190"
Sparkasse Aschaffenburg-Alzenau,info@spk-aschaffenburg.de,49.97718,9.1492,"5,404,729"
Sparkasse Arnstadt-Ilmenau,info@spk-arnstadt-ilmenau.de,50.68327,10.91244,"1,499,660"
Sparkasse Arnsberg-Sundern,info@sparkasse-arnsberg-sundern.de,51.45135,7.96393,"1,568,255"
Sparkasse Ansbach,info@sparkasse-ansbach.de,49.301,10.57594,"5,168,027"
Sparkasse an Volme und Ruhr,info@sparkasse-hagenherdecke.de,51.35925,7.47313,"3,943,541"
Sparkasse an der Lippe,info@sparkasse-adl.de,51.61362,7.5194,"2,364,844"
Sparkasse Amberg-Sulzbach,info@sparkasse-amberg-sulzbach.de,49.44593,11.86689,"2,204,679"
Sparkasse am Niederrhein,info@sparkasse-am-niederrhein.de,51.45208,6.63047,"4,160,982"
Sparkasse Altötting-Mühldorf,info@spkam.de,48.2427,12.5201,"3,420,299"
Sparkasse Altmark West,info@spk-altmark-west.de,52.85325,11.15148,"1,203,723"
Sparkasse Altenburger Land,info@sparkasse-altenburgerland.de,50.99299,12.44444,"1,187,892"
Sparkasse Allgäu,info@sparkasse-allgaeu.de,47.72706,10.31278,"5,225,730"
Sparkasse Aichach-Schrobenhausen,info@spk-aic-sob.de,48.46144,11.13203,"1,502,206"
Sparkasse Aachen,info@sparkasse-aachen.de,50.77395,6.08429,"15,236,932"
Sparda-Bank West eG,info@sparda-west.de,51.2254,6.77631,"12,296,609"
Sparda-Bank Südwest eG,info@sparda-sw.de,50.00123,8.27625,"11,111,426"
Sparda-Bank Ostbayern eG,info@sparda-ostbayern.de,49.01953,12.09749,"3,016,326"
Sparda-Bank Nürnberg eG,info@sparda-n.de,49.45387,11.0773,"4,975,193"
Sparda-Bank München eG,info@sparda-m.de,48.13711,11.57538,"9,051,274"
Sparda-Bank Hessen eG,info@sparda-hessen.de,50.11064,8.68209,"9,342,745"
Sparda-Bank Hannover eG,info@sparda-h.de,52.37448,9.73855,"5,099,850"
Sparda-Bank Hamburg eG,info@sparda-bank-hamburg.de,53.55034,10.00065,"4,203,775"
Sparda-Bank Berlin eG,info@sparda-b.de,52.51704,13.38886,"6,636,113"
Sparda-Bank Baden-Württemberg eG,info@sparda-bw.de,48.77845,9.18001,"14,882,423"
Sparda-Bank Augsburg eG,info@sparda-a.de,48.3668,10.8987,"1,786,978"
Spar-u.Kredit-Bank eG,info@skb-gemuenden.de,50.55993,8.01769,"159,197"
Spar- und Kreditbank Rheinstetten,info@skb-rheinstetten.de,48.96855,8.30971,"331,302"
Spar- und Kreditbank Evangelisch-Freikirchlicher Gemeinden eG,info@skb-badhomburg.de,50.22677,8.61691,"258,623"
"Spar- und Kreditbank eG, Hammah",info@skb-hammah.de,53.6167,9.36667,"215,696"
Spar- und Kreditbank des Bundes Freier evangelischer Gemeinden eG,info@skbwitten.de,51.43702,7.33512,"171,241"
Spar- und Kreditbank Bühlertal eG,info@skb-buehlertal.de,48.68689,8.18727,"189,592"
Spar- und Darlehnskasse Börde Lamstedt-Hechthausen eG,info@sdkinlamstedt.de,53.635,9.10126,"171,787"
Spar- und Darlehnskasse Bockum-Hövel eG,info@sdk-bockum-hoevel.de,51.68041,7.8152,"326,572"
SKS Erlangen Höchstadt Herzogenaurach,info@sparkasse-erlangen.de,49.59649,11.00503,"8,161,899"
Schrobenhausener Bank eG,info@sob-bank.de,48.56134,11.26545,"560,799"
Scharnhauser Bank eG,info@scharnhauserbank.de,48.71786,9.26307,"163,820"
Salzlandsparkasse,info@salzlandsparkasse.de,51.85196,11.57958,"3,138,779"
Saalesparkasse,info@saalesparkasse.de,51.48296,11.97447,"6,071,326"
"Rottaler Raiffeisenbank eG, Pocking",info@rottaler-raiba.de,48.40152,13.31077,"857,623"
Rhön-Rennsteig Sparkasse,info@rhoen-rennsteig-sparkasse.de,50.57518,10.41543,"2,352,291"
Rheinhessische Sparkasse,info@rheinhessen-sparkasse.de,50.00045,8.26271,"6,586,000"
Rheingauer Volksbank eG,info@rheingauer-volksbank.de,49.98639,7.96852,"1,567,093"
Raiffeisenbank Zeller Land eG,info@rb-zellerland.de,50.02845,7.14647,"286,279"
Raiffeisenbank Wyhl eG,info@raiffeisenbank-wyhl.de,48.17073,7.64892,"172,645"
Raiffeisenbank Wüstenselbitz eG,info@rb-wuestenselbitz.de,50.21718,11.6943,"58,484"
"Raiffeisenbank Wittelsbacher Land eG, Mering",info@rb-wila.de,48.2667,10.9833,"1,544,733"
Raiffeisenbank Wimsheim-Mönsheim eG,info@rb-wimsheim-moensheim.de,48.85211,8.82734,"101,113"
Raiffeisenbank Wiesedermeer-Wiesede-Marcardsmoor eG,info@raibawiesedermeer.de,53.48128,7.7259,"63,061"
Raiffeisenbank Westkreis Fürstenfeldbruck eG,info@westkreis.de,48.15476,11.0789,"415,148"
Raiffeisenbank Westhausen eG,info@raiba-westhausen.de,48.88452,10.18785,"265,251"
Raiffeisenbank Westeifel eG,info@rb-westeifel.de,50.15508,6.46619,"540,665"
"Raiffeisenbank Westallgäu eG, Gestratz",info@raiffeisenbank-westallgaeu.de,47.64804,9.98556,"406,088"
Raiffeisenbank Wesermarsch-Süd eG,info@raibawesermarschsued.de,53.32561,8.48063,"299,052"
Raiffeisenbank Werratal-Landeck eG,info@rb-wl.de,50.88709,10.00781,"240,886"
Raiffeisenbank Welling eG,info@raiba-welling.de,50.32907,7.31352,"104,802"
Raiffeisenbank Weißenburg-Gunzenhausen eG,info@rb-wug.de,49.03057,10.9719,"1,806,047"
Raiffeisenbank Wegscheid eG,info@rb-wegscheid.de,48.60115,13.78686,"126,157"
Raiffeisenbank Wangen eG,info@raiffeisenbank-wangen.de,47.68566,9.83422,"240,241"
Raiffeisenbank Wallgau-Krün eG,info@raiba-wallgau-kruen.de,47.51956,11.28334,"49,275"
Raiffeisenbank Waldaschaff-Heigenbrücken eG,info@rb-waldaschaff.de,49.97675,9.29611,"298,808"
Raiffeisenbank Wald-Görisried eG,info@rb-wald.de,47.72248,10.5569,"71,618"
Raiffeisenbank Voreifel eG,info@rb-voreifel.de,50.62568,6.94914,"1,387,299"
Raiffeisenbank Volkmarsen eG,info@waldecker-bank.de,51.42305,9.09712,"148,092"
"Raiffeisenbank Unteres Zusamtal eG, Buttenwiesen",info@rb-zu.de,48.60538,10.72223,"166,552"
"Raiffeisenbank Unteres Vilstal eG, Schmidmühlen",info@rbuv.de,49.27045,11.92435,"290,669"
"Raiffeisenbank Unteres Inntal eG, Pocking-Hartkirchen",info@rbui.de,48.40316,13.38899,"210,567"
Raiffeisenbank Uehlfeld-Dachsbach eG,info@raiba-ueda.de,49.6396,10.70629,"162,126"
Raiffeisenbank Türkheim eG,info@rb-tuerkheim.de,48.06012,10.63942,"206,115"
Raiffeisenbank Tüngental eG,info@raiba-tuengental.de,49.1124,9.7369,"60,128"
Raiffeisenbank Todenbüttel eG,info@rbtodenbuettel.de,54.12655,9.56177,"102,448"
Raiffeisenbank Thurnauer Land eG,info@rb-thurnauerland.de,50.02445,11.39447,"151,289"
Raiffeisenbank Thannhausen eG,info@rb-thannhausen.de,48.28293,10.46823,"350,292"
Raiffeisenbank Taufkirchen-Oberneukirchen eG,info@rb-tofk.de,48.17353,12.52255,"316,502"
Raiffeisenbank Südstormarn Mölln eG,info@rbsum.de,53.61175,10.40439,"938,441"
"Raiffeisenbank Südliches Ostallgäu eG, Seeg",info@rb-sued-oal.de,47.65357,10.60694,"406,382"
Raiffeisenbank Südhardt eG,info@raiba-suedhardt.de,48.93283,8.27049,"471,446"
Raiffeisenbank Strücklingen-Idafehn eG,info@raiba-idafehn.de,53.13892,7.62117,"194,824"
Raiffeisenbank Straubing eG,info@raiffeisenbank-straubing.de,48.88198,12.56972,"1,025,563"
Raiffeisenbank Steinheim eG,info@raiba-steinheim.de,51.86605,9.09428,"173,020"
Raiffeisenbank Steingaden eG,info@raiba-steingaden.de,47.70316,10.8625,"364,599"
Raiffeisenbank Sondelfingen eG,info@rb-sondelfingen.de,48.49195,9.21141,"90,547"
Raiffeisenbank Sinzing eG,info@raiffeisenbank-sinzing.de,48.98182,11.96153,"114,321"
"Raiffeisenbank Singoldtal eG, Hurlach",info@rb-singoldtal.de,48.12036,10.81605,"190,121"
"Raiffeisenbank Seebachgrund eG, Heßdorf",info@rb-dreifranken.de,49.62647,10.91055,"363,250"
Raiffeisenbank Schwabmünchen Stauden eG,info@raiba-smue-stauden.de,48.29006,10.65647,"684,627"
"Raiffeisenbank Schwaben Mitte eG, Krumbach",info@rb-schwaben.de,48.2434,10.3634,"1,772,144"
Raiffeisenbank Schrozberg-Rot am See eG,info@unsere-raiba.de,49.34575,9.98154,"411,599"
Raiffeisenbank Schrobenhausener Land eG,info@rb-sobland.de,48.60932,11.20716,"268,666"
Raiffeisenbank Schaafheim eG,info@rb-schaafheim.de,49.9107,9.0082,"213,177"
"Raiffeisenbank Rupertiwinkel eG, Teisendorf",info@raiba-rupertiwinkel.de,47.84904,12.82184,"496,521"
Raiffeisenbank Rosenstein eG,info@raiffeisenbank-rosenstein.de,48.79135,9.93636,"367,248"
Raiffeisenbank Rodenbach eG,info@die-raiffeisenbank.de,49.47409,7.6569,"358,218"
Raiffeisenbank Ried eG,info@raiba-ried.de,49.64161,8.45491,"461,099"
Raiffeisenbank Reute-Gaisbeuren eG,info@rb-reute-gaisbeuren.de,47.92096,9.75428,"189,770"
Raiffeisenbank Rehling eG,info@raiba-rehling.de,48.48672,10.92915,"354,080"
Raiffeisenbank Regenstauf eG,info@raiffeisenbank-regenstauf.de,49.12398,12.12782,"312,001"
Raiffeisenbank Regensburg-Wenzenbach eG,info@raiffeisenbank-regensburg.de,49.01953,12.09749,"820,528"
Raiffeisenbank Rattiszell-Konzell eG,info@rb-rattiszell-konzell.de,49.0267,12.66079,"335,724"
Raiffeisenbank Rastede eG,info@raiba-rastede.de,53.24671,8.2019,"334,820"
Raiffeisenbank Raisting eG,info@rb-raisting.de,47.91292,11.10907,"50,206"
Raiffeisenbank Plankstetten AG,info@raiffeisenbank-plankstetten.de,49.10626,11.43979,"166,742"
"Raiffeisenbank Pfaffenwinkel eG, Peiting",info@raiba-pfaffenwinkel.de,47.79546,10.92351,"1,155,091"
Raiffeisenbank Pfaffenhofen a.d. Glonn eG,info@raiba-pfaffenhofen.de,48.3098,11.20055,"349,684"
Raiffeisenbank Pfaffenhausen eG,info@rb-pfaffenhausen.de,48.11976,10.45447,"386,400"
Raiffeisenbank Parkstetten eG,info@rb-parkstetten.de,48.91773,12.59842,"203,122"
Raiffeisenbank Owschlag eG,info@rbowschlag.de,54.39374,9.59102,"59,058"
Raiffeisenbank Ottenbach eG,info@raiffeisenbank-ottenbach.de,48.73382,9.74943,"66,970"
Raiffeisenbank Ostprignitz-Ruppin eG,info@rbopr.de,52.92439,12.80929,"350,839"
Raiffeisenbank Ortenburg - Kirchberg v.W. eG,info@rbok.de,48.54673,13.22626,"538,882"
Raiffeisenbank Oberteuringen-Meckenbeuren eG,info@rb-om.de,47.72536,9.46998,"363,958"
"Raiffeisenbank Oberpfalz Süd eG, Donaustauf",info@rb-os.de,49.02981,12.20761,"1,360,111"
"Raiffeisenbank Oberpfalz NordWest eG, Kemnath",info@rb-onw.de,49.87094,11.88937,"595,382"
"Raiffeisenbank Obermain Nord eG, Altenkunstadt",info@rbobermain.de,50.12844,11.24338,"950,043"
"Raiffeisenbank Oberland eG, Marktleugast",info@raiba-oberland.de,50.17041,11.63223,"153,820"
Raiffeisenbank Oberferrieden-Burgthann eG,info@raiba-burgthann.de,49.35622,11.3174,"211,549"
Raiffeisenbank Oberes Gäu eG,info@rb-oberes-gaeu.de,48.47696,8.93368,"240,454"
Raiffeisenbank Oberaudorf eG,info@rb-oberaudorf.de,47.64856,12.17199,"191,836"
Raiffeisenbank Nüdlingen eG,info@raiba-nuedlingen.de,50.22207,10.12515,"116,054"
Raiffeisenbank Nördliche Bergstraße eG,info@raiba-alsbach.de,49.73835,8.595,"219,486"
Raiffeisenbank Niederwallmenach eG,info@raiba-ndwa.de,50.1645,7.81177,"47,018"
Raiffeisenbank Niedere Alb eG,info@rb-niedere-alb.de,48.4975,10.1222,"227,865"
Raiffeisenbank Neustadt-Vohenstrauß eG,info@rb-new-voh.de,49.73141,12.17329,"577,216"
Raiffeisenbank Neumarkt-St. Veit - Reischach eG,info@rb-nr.de,48.29339,12.72391,"782,014"
Raiffeisenbank Neumarkt i.d.OPf. eG,info@raiba-neumarkt-opf.de,49.27962,11.45947,"1,221,705"
Raiffeisenbank München-Süd eG,info@raiba-muc-sued.de,48.07994,11.52694,"1,448,903"
"Raiffeisenbank München-Nord eG, Unterschleißheim",info@rb-muenchen-nord.de,48.27307,11.57027,"963,880"
Raiffeisenbank Mötzingen eG,info@raiba-moetzingen.de,48.53549,8.77471,"85,767"
Raiffeisenbank Moselkrampen eG,info@raiba-moselkrampen.de,50.14394,7.22424,"153,741"
Raiffeisenbank Mittenwald eG,info@raiba-mittenwald.de,47.44295,11.26557,"118,869"
"Raiffeisenbank Mittelschwaben eG, Roggenburg",info@rb-mittelschwaben.de,48.27709,10.23116,"246,421"
Raiffeisenbank Mehring-Leiwen eG,info@rbmehring-leiwen.de,49.82192,6.88134,"206,088"
Raiffeisenbank Mecklenburger Seenplatte eG,info@raiba-seenplatte.de,53.5218,12.68056,"911,714"
Raiffeisenbank Maßbach eG,info@rb-massbach.de,50.16642,10.20445,"186,294"
Raiffeisenbank Maitis eG,info@raiffeisenbank-maitis.de,48.70314,9.65411,"32,011"
"Raiffeisenbank Mainschleife - Steigerwald eG, Volkach",info@raiffeisenbank-mainschleife-steigerwald.de,49.8622,10.23147,"871,933"
"Raiffeisenbank Main-Spessart eG, Lohr am Main",info@raiba-msp.de,49.9955,9.57336,"1,976,521"
Raiffeisenbank Lorup eG,info@rb-lorup.de,52.92514,7.64564,"190,806"
Raiffeisenbank Lechrain,info@rb-lechrain.de,47.92309,11.50864,"253,829"
Raiffeisenbank Küps-Mitwitz-Stockheim eG,info@raiba-kms.de,50.19179,11.27782,"267,001"
Raiffeisenbank Kreis Kelheim eG,info@rbkk.de,48.91873,11.87279,"2,224,648"
"Raiffeisenbank Knoblauchsland eG, Nürnberg-Buch",info@rb-knoblauchsland.de,49.49086,11.04284,"219,295"
Raiffeisenbank Kirtorf eG,info@rb-kirtorf.de,50.76835,9.1061,"79,085"
"Raiffeisenbank Kirchweihtal eG, Pforzen",info@rb-kirchweihtal.de,47.92974,10.6129,"427,841"
Raiffeisenbank Kieselbronn eG,info@rb-kieselbronn.de,48.93395,8.74796,"169,956"
"Raiffeisenbank Kempten-Oberallgäu eG, Sonthofen",info@raiba-ke-oa.de,47.51341,10.27215,"2,240,879"
Raiffeisenbank Kastellaun eG,info@raiffeisenbank-kastellaun.de,50.07134,7.44223,"227,458"
Raiffeisenbank Kalbe-Bismark eG,info@rbkalbe-bismark.de,52.65609,11.38718,"119,102"
Raiffeisenbank Kaiserstuhl eG,info@raiffeisenbank-kaiserstuhl.de,48.08262,7.62367,"225,501"
Raiffeisenbank Kaarst eG,info@raiba-kaarst.de,51.22668,6.61939,"203,428"
"Raiffeisenbank Isar-Loisachtal eG, Wolfratshausen",info@rileg.de,47.91413,11.42566,"691,489"
"Raiffeisenbank im Oberpfälzer Jura eG, Parsberg",info@rb-opf-jura.de,49.1599,11.71883,"1,068,293"
"Raiffeisenbank im Oberland eG, Bad Tölz",info@oberlandbank.de,47.76106,11.55829,"1,491,180"
"Raiffeisenbank im Nürnberger Land eG, Feucht",info@rbnl.de,49.37525,11.21582,"1,280,748"
Raiffeisenbank im Kreis Calw eG,info@raibacalw.de,48.66194,8.69264,"675,575"
Raiffeisenbank im Hochtaunus eG,info@meinebank.de,50.22677,8.61691,"1,040,603"
"Raiffeisenbank im Grabfeld eG, Römhild",info@rb-grabfeld.de,50.24095,10.56152,"160,334"
Raiffeisenbank im Fuldaer Land eG,info@rb-fuldaerland.de,50.59006,9.54031,"659,972"
"Raiffeisenbank im Donautal eG, Gaimersheim",info@rb-idt.de,48.80605,11.36755,"1,108,601"
Raiffeisenbank im Breisgau eG,info@raiffeisenbank-im-breisgau.de,48.04412,7.8686,"358,902"
"Raiffeisenbank im Allgäuer Land eG, Altusried",info@rb-allgaeuerland.de,47.80791,10.28977,"1,326,431"
Raiffeisenbank Ichenhausen eG,info@rb-ichenhausen.de,48.37127,10.30711,"321,953"
Raiffeisenbank i. Lkrs. Passau-Nord eG,info@rbpn.de,49.93772,7.54399,"515,115"
Raiffeisenbank Holzkirchen-Otterfing eG,info@rb-holzkirchen-otterfing.de,49.7817,9.67967,"440,321"
Raiffeisenbank Hohenloher Land eG,info@rb-hl.de,49.30144,9.65134,"1,320,820"
"Raiffeisenbank Hochfranken West eG, Stammbach",info@rb-hfw.de,50.14557,11.6917,"468,435"
Raiffeisenbank Höchberg eG,info@raiba-hoechberg.de,49.78375,9.88112,"480,572"
Raiffeisenbank Hirschau eG,info@rb-hirschau.de,49.54459,11.94643,"194,922"
Raiffeisenbank Hiltenfingen eG,info@raiffeisenbank-hiltenfingen.de,48.16207,10.71942,"71,614"
Raiffeisenbank HessenNord eG,info@rb-hessennord.de,51.33334,9.19689,"796,088"
Raiffeisenbank Heroldsbach eG,info@raiffeisenbank-heroldsbach.de,49.69251,10.99958,"73,435"
Raiffeisenbank Hengersberg-Schöllnach eG,info@rb-hs.de,48.77366,13.05151,"417,909"
Raiffeisenbank Heilsbronn-Windsbach eG,info@rb-windsbach.de,49.24892,10.82906,"547,477"
Raiffeisenbank Hardt-Bruhrain eG,info@rb-hardt-bruhrain.de,49.17084,8.41583,"206,814"
"Raiffeisenbank Hallertau eG, Rudelzhausen",info@raibahallertau.de,48.64059,11.78207,"571,513"
Raiffeisenbank Haag-Gars-Maitenbeth eG,info@rbk-haag-gars.de,48.16117,12.1783,"467,074"
Raiffeisenbank Gymnich eG,info@gymnich.de,50.80272,6.80316,"169,814"
Raiffeisenbank Gruibingen eG,info@raiffeisenbank-gruibingen.de,48.59454,9.64311,"56,474"
Raiffeisenbank Grimma eG,info@raiba-grimma.de,51.23834,12.72875,"271,329"
Raiffeisenbank Griesstätt-Halfing eG,info@raiba-gh.de,47.95004,12.27651,"269,043"
Raiffeisenbank Grävenwiesbach eG,info@rb-graevenwiesbach.de,50.38678,8.45733,"106,009"
Raiffeisenbank Grainet eG,info@rb-grainet.de,48.79742,13.65288,"155,172"
Raiffeisenbank Gmund am Tegernsee eG,info@raiffeisenbank-gmund.de,47.75043,11.73857,"168,206"
Raiffeisenbank Gilching eG,info@raiba-gilching.de,48.11403,11.29215,"367,502"
Raiffeisenbank Geislingen-Rosenfeld eG,info@raiba-gr.de,48.28863,8.81355,"242,728"
Raiffeisenbank Geiselhöring-Pfaffenberg eG,info@rb-geiselhoering.de,48.82589,12.3926,"360,230"
"Raiffeisenbank Fränkische Schweiz eG, Hollfeld",info@rb-frs.de,49.93899,11.29189,"329,664"
Raiffeisenbank Frankenhardt-Stimpfach eG,info@rb-frankenhardt-stimpfach.de,49.0608,10.09316,"335,064"
Raiffeisenbank Floß eG,info@raiba-floss.de,49.72554,12.27836,"125,331"
Raiffeisenbank Flachsmeer eG,info@raiba-flachsmeer.de,53.15,7.46667,"520,755"
Raiffeisenbank Falkenstein-Wörth eG,info@rbfalkenstein-woerth.de,49.60793,7.87406,"388,922"
Raiffeisenbank Estenfeld-Bergtheim eG,info@rb-eb.de,49.82865,10.00813,"446,310"
Raiffeisenbank Eschlkam-Lam-Lohberg-Neukirchen b. Hl. Blut eG,info@rb-elln.de,49.29932,12.91619,"264,245"
Raiffeisenbank Ersingen eG,info@raiffeisenbankersingen.de,48.93874,8.62684,"92,097"
Raiffeisenbank Erlenbach eG,info@raiffeisenbank-erlenbach.de,49.17022,9.26922,"98,761"
Raiffeisenbank Erding eG,info@rberding.de,48.30644,11.90766,"688,668"
Raiffeisenbank Ems-Vechte eG,info@ems-vechte.de,52.76764,7.46216,"629,160"
Raiffeisenbank Elztal eG,info@raiffeisenbank-elztal.de,49.3897,9.21056,"171,258"
"Raiffeisenbank Elsavatal eG, Eschau",info@raiba-elsavatal.de,49.81915,9.25821,"210,570"
Raiffeisenbank Elbmarsch eG,info@rbelbmarsch.de,53.65284,9.66645,"260,501"
Raiffeisenbank Eifeltor eG,info@rb-eifeltor.de,50.2308,7.14049,"402,343"
Raiffeisenbank Eifel eG,info@raiffeisenbank-eifel.de,50.60725,6.30053,"608,352"
Raiffeisenbank Eichenbühl und Umgebung eG,info@raiffeisenbank-eichenbuehl.de,49.70273,9.33138,"115,365"
Raiffeisenbank Ehekirchen-Oberhausen eG,info@rb-ehekirchen.de,48.63966,11.10439,"310,915"
"Raiffeisenbank eG, Seestermühe",info@rbseestermuehe.de,53.70417,9.56394,"92,951"
"Raiffeisenbank eG, Moormerland",info@raibamol.de,53.31962,7.42251,"542,404"
Raiffeisenbank eG Unterwesterwald,info@raiffeisenbank-unterwesterwald.de,50.37901,7.7477,"65,242"
Raiffeisenbank eG Scharrel,info@rbscharrel.de,53.08459,7.69374,"346,788"
Raiffeisenbank eg Hagenow,info@die-raiffeisenbank.de,53.43058,11.19048,"764,952"
Raiffeisenbank eG Deggendorf-Plattling-Sonnenwald,info@rb-deggendorf.de,48.78141,13.00064,"1,043,157"
Raiffeisenbank eG,info@vreg.de,53.6624,11.49859,"282,777"
Raiffeisenbank eG,info@die-raiffeisenbank.de,53.37898,10.55139,"474,643"
Raiffeisenbank Dreifranken,info@rb-dreifranken.de,51.20943,10.4589,"204,523"
Raiffeisenbank Donau-Heuberg eG,info@raiba-donau-heuberg.de,48.38011,8.69851,"205,014"
Raiffeisenbank Dietersheim und Umgebung eG,info@rb-dietersheim.de,49.55756,10.53823,"88,229"
Raiffeisenbank Denzlingen-Sexau eG,info@rb-denzlingen-sexau.de,48.06692,7.88627,"197,681"
Raiffeisenbank Chiemgau-Nord - Obing eG,info@rb-chiemgau-nord.de,47.93402,12.47833,"329,894"
"Raiffeisenbank Chamer Land eG, Cham",info@rb-chamer-land.de,49.21782,12.66638,"1,178,944"
Raiffeisenbank Bütthard-Gaukönigshofen eG,info@raiba-buett-gauk.de,49.59953,9.88063,"543,154"
Raiffeisenbank Butjadingen-Abbehausen eG,info@rbbutjadingenabbehausen.de,53.5472,8.335,"233,062"
Raiffeisenbank Burgebrach - Stegaurach eG,info@raiffeisenbank-bs.de,49.82689,10.7425,"525,609"
Raiffeisenbank Bühlertal eG,info@raiba-buehlertal.de,49.08643,9.88121,"292,778"
Raiffeisenbank Buch-Eching eG,info@rb-eching.de,48.49848,12.06166,"450,478"
Raiffeisenbank Böllingertal eG,info@raiba-boellingertal.de,49.19571,9.14559,"117,684"
Raiffeisenbank Bobingen eG,info@raiba-bobingen.de,48.26879,10.83379,"506,730"
Raiffeisenbank Bissingen eG,info@rbbissingen.de,48.71775,10.61584,"149,220"
Raiffeisenbank Biebergrund-Petersberg eG,info@rb-biebergrund-petersberg.de,49.23894,7.56577,"403,184"
Raiffeisenbank Bidingen eG,info@raiba-bidingen.de,47.82988,10.72565,"70,733"
"Raiffeisenbank Bibertgrund eG, Zirndorf",info@raiba-bibertgrund.de,49.44576,10.95605,"411,612"
Raiffeisenbank Biberach eG,info@rb-biberach.de,48.1286,9.7972,"1,025,384"
Raiffeisenbank Beuerberg-Eurasburg eG,info@rb-beuerberg.de,48.33437,11.08327,"332,514"
Raiffeisenbank Berghülen eG,info@rb-berghuelen.de,48.46413,9.76111,"82,070"
Raiffeisenbank Bechhofen eG,info@rb-bechhofen.de,49.17056,10.56494,"98,129"
Raiffeisenbank Baunatal eG,info@rb-baunatal.de,51.25508,9.4119,"727,771"
Raiffeisenbank Baisweil-Eggenthal-Friesenried eG,info@rb-eggenthal.de,47.94428,10.54262,"140,953"
Raiffeisenbank Baiertal eG,info@rbbai.de,49.29426,8.69871,"175,226"
Raiffeisenbank Bad Windsheim eG,info@vbessen-cappeln.de,49.502,10.41753,"533,144"
Raiffeisenbank Bad Schussenried - Aulendorf eG,info@rbbs.de,47.95282,9.64093,"345,291"
Raiffeisenbank Bad Saulgau eG,info@rb-bad-saulgau.de,48.01581,9.50103,"240,291"
Raiffeisenbank Bad Kötzting eG,info@rb-koetzting.de,49.16984,12.87825,"234,141"
"Raiffeisenbank Augsburger Land West eG, Zusmarshausen",info@rb-alw.de,48.3999,10.59573,"862,835"
Raiffeisenbank Auerbach-Freihung eG,info@rb-af.de,49.6924,11.63257,"371,260"
Raiffeisenbank Aschberg eG,info@rb-aschberg.de,50.35449,8.04819,"372,582"
Raiffeisenbank Aschau-Samerberg eG,info@rb-as.de,47.7765,12.32342,"256,243"
Raiffeisenbank Arnstorf eG,info@rb-arnstorf.de,48.56351,12.8174,"387,131"
Raiffeisenbank Aresing-Gerolsbach eG,info@rb-arge.de,48.49374,11.3619,"417,647"
Raiffeisenbank Anger eG,info@rb-anger.de,47.80449,12.8547,"138,320"
"Raiffeisenbank am Kulm eG, Speichersdorf",info@rb-am-kulm.de,49.87565,11.77859,"130,513"
"Raiffeisenbank Am Goldenen Steig eG, Röhrnbach",info@rb-ags.de,48.73959,13.52242,"539,171"
"Raiffeisenbank am Dreisessel eG, Neureichenau",info@rb-dreisessel.de,48.74772,13.74697,"167,257"
Raiffeisenbank Altschweier eG,info@raiba-altschweier.de,48.69451,8.13442,"70,139"
Raiffeisenbank Altmühl-Jura,info@raiba-gretha.de,49.03528,11.47338,"698,119"
Raiffeisenbank Alteglofsheim-Hagelstadt eG,info@rb-ah.de,48.8955,12.21614,"135,205"
Raiffeisenbank Altdorf-Ergolding eG,info@rb-lala.de,48.57634,12.17148,"1,809,032"
Raiffeisenbank Aitrang-Ruderatshofen eG,info@raiba-aitrang-rud.de,47.81952,10.5356,"79,861"
Raiffeisenbank Aindling eG,info@raiba-aindling.de,48.51215,10.95282,"414,983"
Raiffeisenbank Aidlingen eG,info@ihrziel.de,48.67856,8.89833,"246,475"
Raiffeisenbank Aichhalden-Hardt-Sulgen eG,info@raibadirekt.de,50.6347,7.91796,"236,932"
"Raiffeisenbank ""Nahe"" eG",info@rb-nahe.de,49.45423,7.91368,"214,537"
Raiffeisen-Volksbank Wemding eG,info@rbrodenbach.de,48.87455,10.72402,"354,563"
Raiffeisen-Volksbank Varel-Nordenham eG,info@rvbvarelnordenham.de,53.39578,8.13721,"916,062"
Raiffeisen-Volksbank Tüßling-Unterneukirchen eG,info@rv-banken.de,48.2127,12.60036,"224,589"
"Raiffeisen-Volksbank Ries eG, Nördlingen",info@rvbankries.de,48.85166,10.48859,"1,297,075"
Raiffeisen-Volksbank Oder-Spree eG,info@rvboderspree.de,52.17216,14.24711,"307,938"
Raiffeisen-Volksbank Neustadt eG,info@raiba-neustadt.de,52.50551,9.46358,"141,228"
Raiffeisen-Volksbank Haßberge eG,info@rvb-hassberge.de,50.03187,10.50656,"627,041"
Raiffeisen-Volksbank Fresena eG,info@rvbfresena.de,53.5942,7.20674,"943,163"
"Raiffeisen-Volksbank eG, Aurich",info@meine-rvb.de,53.51229,7.39153,"1,997,298"
Raiffeisen-Volksbank Ebersberg eG,info@rv-ebe.de,48.05029,11.96613,"920,090"
Raiffeisen-Volksbank Donauwörth eG,info@rvb-donauwoerth.de,48.71804,10.78073,"1,969,241"
Raiffeisen-Volksbank Bad Staffelstein eG,info@rvb-bad-staffelstein.de,50.10283,10.99916,"351,833"
Raiffeisen-Volksbank Aschaffenburg eG,info@raiffeisen-volksbank-aschaffenburg.de,49.97405,9.14936,"3,203,052"
Raiffeisen-Bank Eschweiler eG,info@rb-eschweiler.de,50.8175,6.26309,"507,141"
"RAIFFEISEN Spar + Kreditbank eG, Lauf a. d. Pegnitz",info@rb-lauf.de,49.51235,11.2788,"588,091"
Raiffeisen - Volksbank Hermsdorfer Kreuz eG,info@hermsdorfer-kreuz.de,50.89795,11.85671,"129,942"
"Raiffeisen - meine Bank eG, Hilpoltstein",info@rmbeg.de,49.18896,11.18922,"880,492"
PSD Bank Westfalen-Lippe eG,info@psd-westfalen-lippe.de,51.96251,7.62519,"1,053,639"
PSD Bank West eG,info@psd-west.de,50.93836,6.95997,"1,847,414"
PSD Bank RheinNeckarSaar eG,info@psd-rheinneckarsaar.de,48.77845,9.18001,"2,436,967"
PSD Bank Rhein-Ruhr eG,info@psd-rhein-ruhr.de,51.2254,6.77631,"4,140,932"
PSD Bank Nürnberg eG,info@psd-nuernberg.de,49.45387,11.0773,"4,659,303"
PSD Bank Nord eG,info@psd-nord.de,53.55034,10.00065,"2,111,588"
PSD Bank München eG,info@psd-muenchen.de,48.3668,10.8987,"2,172,168"
PSD Bank Koblenz eG,info@psd-koblenz.de,50.35333,7.5944,"714,344"
PSD Bank Kiel eG,info@psd-kiel.de,54.32271,10.13556,"667,265"
PSD Bank Karlsruhe-Neustadt eG,info@psd-karlsruhe-neustadt.de,49.00687,8.40342,"2,063,043"
PSD Bank Hessen-Thüringen eG,info@psdbank-ht.de,50.14264,8.57163,"1,640,459"
PSD Bank Hannover eG,info@psd-hannover.de,52.37448,9.73855,"1,244,980"
PSD Bank Braunschweig eG,info@psd-braunschweig.de,52.26466,10.52361,"838,737"
PSD Bank Berlin-Brandenburg eG,info@psd-berlin-brandenburg.de,52.51704,13.38886,"2,179,103"
Pommersche Volksbank eG,info@pommerschevb.de,54.30963,13.08208,"1,004,723"
Pax-Bank eG,info@pax-bank.de,50.93836,6.95997,"3,540,309"
OstseeSparkasse Rostock,info@ospa.de,54.08689,12.1254,"5,617,073"
Ostsächsische Sparkasse Dresden,info@sparkasse-dresden.de,51.05396,13.7589,"14,878,005"
Ostfriesische Volksbank eG,info@ostfriesische-volksbank.de,53.20509,7.45946,"2,962,695"
Onstmettinger Bank eG,info@onstmettinger-bank.de,48.23305,8.99915,"186,178"
Nordthüringer Volksbank eG,info@nordthueringer-volksbank.de,51.50516,10.79253,"868,722"
Nord-Ostsee Sparkasse,info@nospa.de,54.78229,9.43153,"7,791,574"
Niederrheinisch Sparkasse RheinLippe,info@nispa.de,51.65673,6.62284,"3,379,676"
Nassauische Sparkasse,info@naspa.de,50.0777,8.23683,"15,160,161"
Müritz-Sparkasse,info@mueritz-sparkasse.de,53.5151,12.68543,"1,045,093"
Münsterländische Bank Thie & Co. KG,info@mlb.de,51.96251,7.62519,"110,989"
Münchner Bank eG,info@muenchner-bank.de,48.13711,11.57538,"3,530,897"
Mittelbrandenburgische Sparkasse in Potsdam,info@mbs.de,52.36257,13.0952,"16,640,293"
Mendener Bank eG,info@mendener-bank.de,51.43779,7.79538,"435,018"
"meine Volksbank Raiffeisenbank eG, Rosenheim",info@vb-rb.de,47.85393,12.12726,"10,780,469"
Märkische Bank eG,info@maerkische-bank.de,51.35829,7.4733,"1,542,236"
Mainzer Volksbank eG,info@mvb.de,50.00123,8.27625,"8,152,846"
"LIGA Bank eG, Regensburg",info@ligabank.de,49.01953,12.09749,"6,305,715"
levoBank eG,info@levo-bank.de,49.41324,6.90913,"832,275"
Leipziger Volksbank eG,info@leipziger-volksbank.de,51.34063,12.37473,"1,423,150"
Landessparkasse zu Oldenburg,info@lzo.com,53.14497,8.22639,"12,417,882"
Landesbank Berlin AG,info@berliner-sparkasse.de,52.52081,13.41364,"57,000,000"
Landbank Horlofftal eG,info@landbank-horlofftal.de,50.35836,8.87495,"172,552"
Kyffhäusersparkasse Artern-Sondershausen,info@kyffhaeusersparkasse.de,51.36963,10.86589,"1,232,468"
Kurhessische Landbank eG,info@kurhessische-landbank.de,51.31545,9.49241,"87,047"
KSK Schwalm-Eder,info@kreissparkasse-schwalm-eder.de,51.13357,9.54178,"2,579,399"
KSK Grafschaft Bentheim zu Nordhorn,info@sparkasse-nordhorn.de,52.43245,7.06424,"2,388,660"
Kreissparkasse Wiedenbrück,info@kskwd.de,51.8318,8.31126,"3,470,614"
Kreissparkasse Weilburg,info@ksk-weilburg.de,50.48855,8.25986,"1,291,832"
Kreissparkasse Walsrode,info@ksk-walsrode.de,52.8615,9.59558,"1,987,549"
Kreissparkasse Waiblingen,info@kskwn.de,48.82998,9.31462,"9,973,109"
Kreissparkasse Vulkaneifel,info@ksk-vulkaneifel.de,50.19856,6.82943,"1,152,702"
Kreissparkasse Verden,info@ksk-verden.de,52.92138,9.23233,"3,351,844"
Kreissparkasse Tuttlingen,info@ksk-tut.de,47.98208,8.80681,"4,247,610"
Kreissparkasse Tübingen,info@ksk-tuebingen.de,48.5123,9.048,"6,332,275"
Kreissparkasse Traunstein-Trostberg,info@spk-ts.de,47.86732,12.64359,"2,712,378"
Kreissparkasse Syke,info@ksk-syke.de,52.91298,8.8256,"4,410,731"
Kreissparkasse Stendal,info@ksk-stendal.de,52.61613,11.86759,"1,709,159"
Kreissparkasse Steinfurt,info@ksk-steinfurt.de,52.27313,7.71323,"5,479,652"
Kreissparkasse Stade,info@ksk-stade.de,53.59957,9.47745,"2,121,277"
Kreissparkasse St. Wendel,info@kskwnd.de,49.46691,7.16623,"1,617,001"
Kreissparkasse Soltau,info@ksk-soltau.de,52.98583,9.83646,"1,439,572"
Kreissparkasse Schlüchtern,info@ksk-schluechtern.de,50.34837,9.52462,"693,995"
Kreissparkasse Saarpfalz,info@ksk-saarpfalz.de,49.32259,7.33965,"2,090,912"
Kreissparkasse Saarlouis,info@ksk-saarlouis.de,49.31348,6.75384,"4,410,037"
Kreissparkasse Saalfeld-Rudolstadt,info@ksk-slf-ru.de,50.64847,11.36051,"1,701,441"
Kreissparkasse Saale-Orla,info@ksk-saale-orla.de,50.577,11.80626,"1,175,544"
Kreissparkasse Rottweil,info@sparkasse-rottweil.de,48.16146,8.63434,"3,494,823"
Kreissparkasse Rhein-Hunsrück,info@kskrh.de,49.98373,7.52699,"2,090,927"
Kreissparkasse Reutlingen,info@ksk-reutlingen.de,48.49448,9.19833,"6,187,125"
Kreissparkasse Ravensburg,info@kreissparkasse-ravensburg.de,47.78095,9.60833,"5,624,929"
Kreissparkasse Ostalb,info@ksk-ostalb.de,48.83864,10.09561,"6,349,552"
Kreissparkasse Northeim,info@KSN-Northeim.de,51.70551,9.99791,"1,809,729"
Kreissparkasse Nordhausen,info@kskndh.de,51.50318,10.79571,"1,632,801"
Kreissparkasse München Starnberg Ebersberg,info@kskmse.de,48.13314,11.5672,"13,903,428"
Kreissparkasse Miesbach-Tegernsee,info@ksk-mbteg.de,47.79003,11.83093,"2,425,776"
Kreissparkasse Melle,info@ksk-melle.de,52.20396,8.34085,"1,639,844"
Kreissparkasse Mayen,info@kskmayen.de,50.32809,7.22721,"2,372,663"
Kreissparkasse Ludwigsburg,info@ksklb.de,48.89455,9.18635,"12,671,257"
Kreissparkasse Limburg,info@ksk-limburg.de,50.38747,8.05946,"1,818,777"
Kreissparkasse Kusel,info@ksk-kusel.de,49.54013,7.39992,"1,853,379"
Kreissparkasse Köln,info@ksk-koeln.de,50.93695,6.94637,"29,170,655"
Kreissparkasse Kelheim,info@kreissparkasse-kelheim.de,48.92119,11.88601,"2,830,094"
Kreissparkasse Hildburghausen,info@sparkasse-hildburghausen.de,50.42398,10.71893,"789,449"